OBJECTID,PIC,Facility_Name,Facility_Address,City,STATE,ZIP_Code,Operational_Designation,Source,Full_Address,Confidence,Low_Income,longitude,latitude
1,3281,WORLD OIL MARKETING COMPANY #2,1101 E FLORENCE AVE,LOS ANGELES,CALIFORNIA,90001,Service Station or Gas Station,ARB,,,YES,-118.25632578280845,33.97483141453835
2,3287,WORLD OIL MARKETING COMPANY #1,7201 S SAN PEDRO ST,LOS ANGELES,CALIFORNIA,90003,Service Station or Gas Station,ARB,,,YES,-118.26960947719544,33.97468611377332
3,3283,LEE'S MOBIL,1502 FIRESTONE BLVD,LOS ANGELES,CALIFORNIA,90001,Service Station or Gas Station,ARB,,,YES,-118.24697331376726,33.960109173599655
4,3291,AHNS MOBIL,254 W SLAUSON AVE,LOS ANGELES,CALIFORNIA,90003,Service Station or Gas Station,ARB,,,YES,-118.27752847995524,33.989121847795246
5,3282,FIRESTONE SHELL,1454 FIRESTONE BLVD,LOS ANGELES,CALIFORNIA,90001,Service Station or Gas Station,ARB,,,YES,-118.24801184547017,33.9600868866007
6,3296,"Rashid &Sons, Inc",6303 S FIGUEROA ST,LOS ANGELES,CALIFORNIA,90003,Service Station or Gas Station,ARB,,,YES,-118.28272518362022,33.981870399199735
7,3286,OSCAR'S GAS & MINI MART INC,6320 HOLMES AVE,LOS ANGELES,CALIFORNIA,90001,Service Station or Gas Station,ARB,,,YES,-118.2411173494859,33.982541941857285
8,12817,FLORANCE SERVICE STATION,303 W FLORENCE AVE,LOS ANGELES,CALIFORNIA,90003,Service Station or Gas Station,ARB,,,YES,-118.27845778090166,33.974723208109744
9,3288,A & N SERVICE STATION,7831 S ALAMEDA ST,LOS ANGELES,CALIFORNIA,90001,Service Station or Gas Station,ARB,,,,-118.23352005760442,33.968347404209624
10,3284,WORLD OIL MARKETING COMPANY #13,1935 E FLORENCE AVE,LOS ANGELES,CALIFORNIA,90001,Service Station or Gas Station,ARB,,,YES,-118.23775603171535,33.97482527576608
11,3298,AVALON ARCO,9600 AVALON BLVD,LOS ANGELES,CALIFORNIA,90003,Service Station or Gas Station,ARB,,,YES,-118.26508997742037,33.949211907603605
12,3294,FLORENCE CHEVRON,428 W FLORENCE AVE,LOS ANGELES,CALIFORNIA,90003,Service Station or Gas Station,ARB,,,YES,-118.2813757544873,33.97461028743499
13,3293,M & M GAS STATION & MINI-MART,343 W GAGE AVE,LOS ANGELES,CALIFORNIA,90003,Service Station or Gas Station,ARB,,,YES,-118.279959199957,33.98244403446479
14,3297,UNITED PACIFIC #5607,8600 S FIGUEROA ST,LOS ANGELES,CALIFORNIA,90003,Service Station or Gas Station,ARB,,,YES,-118.28262824929415,33.960034450729474
15,3285,SHELL,605 E FLORENCE AVE,LOS ANGELES,CALIFORNIA,90001,Service Station or Gas Station,ARB,,,YES,-118.2650524900802,33.974786610313984
16,3302,Vermont Gas & Mart,341 N VERMONT AVE,LOS ANGELES,CALIFORNIA,90004,Service Station or Gas Station,ARB,,,YES,-118.29174004266869,34.07689831270722
17,3306,MELROSE & VINE MINI MART,655 N ROSSMORE AVE,LOS ANGELES,CALIFORNIA,90004,Service Station or Gas Station,ARB,,,,-118.32667517521897,34.08311462543986
18,3289,GSE 76 FIGUEROA,10000 S FIGUEROA ST,LOS ANGELES,CALIFORNIA,90003,Service Station or Gas Station,ARB,,,YES,-118.28254839129507,33.945501125876426
19,3301,UNITED PACIFIC #5706,304 N VERMONT AVE,LOS ANGELES,CALIFORNIA,90004,Service Station or Gas Station,ARB,,,,-118.29160920659943,34.07642529539121
20,3307,CIRCLE K MOBIL STORE 2211098,657 N VERMONT AVE,LOS ANGELES,CALIFORNIA,90004,Service Station or Gas Station,ARB,,,YES,-118.2917781640309,34.082813293199116
21,3292,G&M OIL COMPANY #79,256 E MANCHESTER AVE,LOS ANGELES,CALIFORNIA,90003,Service Station or Gas Station,ARB,,,YES,-118.2697110025606,33.9601224215127
22,3305,GSE 76 VERMONT,591 N VERMONT AVE,LOS ANGELES,CALIFORNIA,90004,Service Station or Gas Station,ARB,,,YES,-118.29177262870371,34.08169827505549
23,3309,"VERMONT 7, INC.",700 S VERMONT AVE,LOS ANGELES,CALIFORNIA,90005,Service Station or Gas Station,ARB,,,YES,-118.2915604732371,34.05975980027476
24,3312,UNOCAL 76,1000 S VERMONT AVE,LOS ANGELES,CALIFORNIA,90006,Service Station or Gas Station,ARB,,,YES,-118.29154683771623,34.05245822976372
25,3314,USA #63281,1205 S ALVARADO ST,LOS ANGELES,CALIFORNIA,90006,Service Station or Gas Station,ARB,,,YES,-118.2818780240514,34.048637458252315
26,12914,BEVERLY 76,4700 BEVERLY BLVD,LOS ANGELES,CALIFORNIA,90004,Service Station or Gas Station,ARB,,,,-118.31140461223296,34.076200822809945
27,8171,"BROADWAY CENTURY , INC.",9915 S BROADWAY,LOS ANGELES,CALIFORNIA,90003,Service Station or Gas Station,ARB,,,YES,-118.27846374880285,33.94632208369736
28,3303,CONSERV FUEL SITE #6121,3625 BEVERLY BLVD,LOS ANGELES,CALIFORNIA,90004,Service Station or Gas Station,ARB,,,YES,-118.28725042196922,34.075829868653685
29,3300,JIN'S WESTERN SHELL,270 S WESTERN AVE,LOS ANGELES,CALIFORNIA,90004,Service Station or Gas Station,ARB,,,YES,-118.30904106799073,34.069615551516755
30,3304,CALVERY INDO MOBIL,4605 BEVERLY BLVD,LOS ANGELES,CALIFORNIA,90004,Service Station or Gas Station,ARB,,,,-118.30933865995107,34.076317579093185
31,3317,LZZ IN KUS MOBIL,958 S ALVARADO ST,LOS ANGELES,CALIFORNIA,90006,Service Station or Gas Station,ARB,,,YES,-118.27933958415429,34.05237364312931
32,10572,#1 FUEL,655 N WESTERN AVE,LOS ANGELES,CALIFORNIA,90004,Service Station or Gas Station,ARB,,,,-118.30918493973304,34.08267842007323
33,3316,UNITED PACIFIC #155,2503 W PICO BLVD,LOS ANGELES,CALIFORNIA,90006,Service Station or Gas Station,ARB,,,YES,-118.29171020406247,34.047321195217194
34,12986,CIRCLE K STORE 2709440,524 W ADAMS BLVD,LOS ANGELES,CALIFORNIA,90007,Service Station or Gas Station,ARB,,,YES,-118.27520906094921,34.027729677582805
35,3327,USC Petroelum,3775 S VERMONT AVE,LOS ANGELES,CALIFORNIA,90007,Service Station or Gas Station,ARB,,,YES,-118.29159940668713,34.01815340685443
36,3315,PICO SHELL & CAR WASH,1303 S WESTERN AVE,LOS ANGELES,CALIFORNIA,90006,Service Station or Gas Station,ARB,,,YES,-118.30909263601617,34.047151805211804
37,3321,VERMONT FUEL INC,2202 S VERMONT AVE,LOS ANGELES,CALIFORNIA,90007,Service Station or Gas Station,ARB,,,YES,-118.29148468377097,34.03592101664179
38,3324,Adams Fuel Inc,2603 S NORMANDIE AVE,LOS ANGELES,CALIFORNIA,90007,Service Station or Gas Station,ARB,,,YES,-118.30032079177093,34.03264336639843
39,9109,JAMES SERVICE CENTER,3950 W MARTIN LUTHER KING JR BLVD,LOS ANGELES,CALIFORNIA,90008,Service Station or Gas Station,ARB,,,YES,-118.34232539689941,34.01501812468692
40,3320,CIRCLE K MOBIL STORE 2211253,1940 S HOOVER ST,LOS ANGELES,CALIFORNIA,90007,Service Station or Gas Station,ARB,,,YES,-118.28399219798136,34.038677380257056
41,3323,NORMANDIE AND 23RD GAS MART,2217 S NORMANDIE AVE,LOS ANGELES,CALIFORNIA,90007,Service Station or Gas Station,ARB,,,YES,-118.30034555550282,34.03647378044082
42,3318,LS UNION 76,1403 W ADAMS BLVD,LOS ANGELES,CALIFORNIA,90007,Service Station or Gas Station,ARB,,,YES,-118.2916665716548,34.03280183413748
43,3322,JASON'S ARCO & MINI-MART,2211 S HOOVER ST,LOS ANGELES,CALIFORNIA,90007,Service Station or Gas Station,ARB,,,YES,-118.28405130502355,34.03590359137788
44,3357,UNITED PACIFIC #182,5100 W JEFFERSON BLVD,LOS ANGELES,CALIFORNIA,90006,Service Station or Gas Station,ARB,,,,-118.35488853647658,34.025441947088304
45,3330,NEIGHBORBOOD SHELL,1285 E VERNON AVE,LOS ANGELES,CALIFORNIA,90011,Service Station or Gas Station,ARB,,,YES,-118.25237630032586,34.003948540492935
46,3333,WINALL OIL #9,4442 S AVALON BLVD,LOS ANGELES,CALIFORNIA,90011,Service Station or Gas Station,ARB,,,YES,-118.26516613830651,34.00329348330787
47,3336,Shell,900 N HILL ST,LOS ANGELES,CALIFORNIA,90012,Service Station or Gas Station,ARB,,,YES,-118.23863669642625,34.06443096981362
48,3328,WILSHIRE FOOD & GAS STATION INC,3201 WILSHIRE BLVD,LOS ANGELES,CALIFORNIA,90010,Service Station or Gas Station,ARB,,,,-118.29167300810268,34.06185852565063
49,3341,UNITED PACIFIC #170,1600 W OLYMPIC BLVD,LOS ANGELES,CALIFORNIA,90015,Service Station or Gas Station,ARB,,,YES,-118.27421913940161,34.04914403107235
50,3331,MARQUEZ SERVICE STATION,2603 S CENTRAL AVE,LOS ANGELES,CALIFORNIA,90011,Service Station or Gas Station,ARB,,,YES,-118.2550182548884,34.01870208503335
51,3339,OIL PRO inc,1045 BLAINE ST,LOS ANGELES,CALIFORNIA,90015,Service Station or Gas Station,ARB,,,YES,-118.27096994460706,34.04610087815322
52,4062,CHEVRON #3,901 N ALAMEDA,LOS ANGELES,CALIFORNIA,90012,Service Station or Gas Station,ARB,,,YES,-118.23711980093792,34.05817981284828
53,3340,MAIN ST FUELS INC,1516 S MAIN ST,LOS ANGELES,CALIFORNIA,90015,Service Station or Gas Station,ARB,,,YES,-118.26205411800298,34.0341335052572
54,3342,SGRAND SHELL & 7-ELEVEN,504 W OLYMPIC BLVD,LOS ANGELES,CALIFORNIA,90015,Service Station or Gas Station,ARB,,,,-118.2607496954419,34.042977141482076
55,3348,RAFFIS CHEVRON,2538 CRENSHAW BLVD,LOS ANGELES,CALIFORNIA,90016,Service Station or Gas Station,ARB,,,YES,-118.33469068872417,34.03320492376844
56,3343,CHEVRON STATION# 96606,525 W WASHINGTON BLVD,LOS ANGELES,CALIFORNIA,90015,Service Station or Gas Station,ARB,,,YES,-118.27102182919393,34.03406272951157
57,3353,AL'S WESTSIDE #1,3412 SOUTH CRENSHAW BLVD,LOS ANGELES,CALIFORNIA,90016,Service Station or Gas Station,ARB,,,YES,-118.33507059023542,34.0246274850706
58,3354,CRENSHAW SHELL,3645 CRENSHAW BLVD,LOS ANGELES,CALIFORNIA,90016,Service Station or Gas Station,ARB,,,,-118.33518883849392,34.02239379034136
59,3347,LA BREA VALERO,2339 S LA BREA AVE,LOS ANGELES,CALIFORNIA,90016,Service Station or Gas Station,ARB,,,,-118.34974730029752,34.03562199026283
60,3346,CIRCLE K MOBIL STORE 2211146,1925 CRENSHAW BLVD,LOS ANGELES,CALIFORNIA,90016,Service Station or Gas Station,ARB,,,,-118.33124111238725,34.039621334757044
61,3351,WFG CRENSHAW,3063 S CRENSHAW BLVD,LOS ANGELES,CALIFORNIA,90016,Service Station or Gas Station,ARB,,,,-118.33519458066519,34.02663260181331
62,3356,ARCO #42114,4406 W ADAMS BLVD,LOS ANGELES,CALIFORNIA,90016,Service Station or Gas Station,ARB,,,,-118.33525678946907,34.03250935931967
63,3352,Z & R OIL CORP,3300 S LA CIENEGA BLVD,LOS ANGELES,CALIFORNIA,90016,Service Station or Gas Station,ARB,,,,-118.37183436106673,34.02815965784207
64,3344,CERVANTES CHEVRON FOODMART / EXTRA MILE 5243,650 E WASHINGTON BLVD,LOS ANGELES,CALIFORNIA,90015,Service Station or Gas Station,ARB,,,YES,-118.27399961309149,34.035212515445416
65,3358,Kim's Shell,5164 W WASHINGTON BLVD,LOS ANGELES,CALIFORNIA,90016,Service Station or Gas Station,ARB,,,YES,-118.3530059136918,34.0411723019603
66,3349,76 Adams,2545 S CRENSHAW BLVD,LOS ANGELES,CALIFORNIA,90016,Service Station or Gas Station,ARB,,,YES,-118.33485580694978,34.033167661258794
67,3361,EZB INC,1904 W WASHINGTON BLVD,LOS ANGELES,CALIFORNIA,90018,Service Station or Gas Station,ARB,,,YES,-118.30048789120309,34.03991020868937
68,3360,DOWNTOWN GLOBE INC,1307 W 6TH ST,LOS ANGELES,CALIFORNIA,90017,Service Station or Gas Station,ARB,,,YES,-118.26580519565309,34.05566457096334
69,3365,CIRCLE K MOBIL STORE 2211314,4380 W ADAMS BOULEVARD,LOS ANGELES,CALIFORNIA,90018,Service Station or Gas Station,ARB,,,YES,-118.33446369624244,34.03251335500748
70,3363,UNITED PACIFIC #150,2121 ARLINGTON AVE,LOS ANGELES,CALIFORNIA,90018,Service Station or Gas Station,ARB,,,,-118.31779306509767,34.037578763948936
71,3362,MK CHEVRON,1907 S ARLINGTON AVE,LOS ANGELES,CALIFORNIA,90018,Service Station or Gas Station,ARB,,,,-118.31775591500329,34.039148945167874
72,3350,SAMS CHEVRON,2546 LA BREA AVE,LOS ANGELES,CALIFORNIA,90016,Service Station or Gas Station,ARB,,,YES,-118.35074966306631,34.03264011714789
73,3370,HAN'S ONESTOP ENTERPRISES INC,3481 W OLYMPIC BLVD,LOS ANGELES,CALIFORNIA,90019,Other,ARB,,,,-118.31406971804286,34.05263332057147
74,3371,CIRCLE K MOBIL STORE 2211109,3950 W OLYMPIC BLVD,LOS ANGELES,CALIFORNIA,90019,Service Station or Gas Station,ARB,,,,-118.32043943173427,34.053662290682354
75,3364,HAN'S UNION 76,3774 S WESTERN AVE,LOS ANGELES,CALIFORNIA,90018,Service Station or Gas Station,ARB,,,YES,-118.30882191669794,34.018215228949806
76,3369,WESTERN OIL INC,3309 W OLYMPIC BLVD,LOS ANGELES,CALIFORNIA,90019,Service Station or Gas Station,ARB,,,,-118.30938237149911,34.05268791211761
77,3378,3RD STREET CHEVRON,3817 W 3RD ST,LOS ANGELES,CALIFORNIA,90020,Service Station or Gas Station,ARB,,,YES,-118.29816876357744,34.06908157995111
78,8552,UNITED PACIFIC #163,4931 W PICO BLVD,LOS ANGELES,CALIFORNIA,90019,Service Station or Gas Station,ARB,,,,-118.34418447723166,34.04798816122486
79,3379,"KS 4000, INC",4000 W 6TH ST,LOS ANGELES,CALIFORNIA,90020,Service Station or Gas Station,ARB,,,YES,-118.31037399456402,34.063460684063514
80,3375,E.V.A. EL-KHOURY VENICE INC,5420 VENICE BLVD,LOS ANGELES,CALIFORNIA,90019,Service Station or Gas Station,ARB,,,,-118.35769957437572,34.04402869446893
81,3308,UNION 76,3501 W 3RD ST,LOS ANGELES,CALIFORNIA,90020,Service Station or Gas Station,ARB,,,YES,-118.29170509771193,34.069108808724714
82,12942,CFS 121 CENTRAL,791 S CENTRAL AVE,LOS ANGELES,CALIFORNIA,90021,Service Station or Gas Station,ARB,,,YES,-118.24280616836984,34.03452600267305
83,3367,LA BREA 76,1515 S LA BREA AVE,LOS ANGELES,CALIFORNIA,90019,Service Station or Gas Station,ARB,,,,-118.34516405927378,34.046657988375586
84,3384,SHELL GAS STATION,1541 S CENTRAL AVE,LOS ANGELES,CALIFORNIA,90021,Service Station or Gas Station,ARB,,,YES,-118.24820947059041,34.02710157757598
85,3386,A & C SERVICE INC.,1800 E OLYMPIC BLVD,LOS ANGELES,CALIFORNIA,90021,Service Station or Gas Station,ARB,,,,-118.23851497138865,34.02740206175599
86,3377,6TH AND CATALINA,3325 W 6TH ST,LOS ANGELES,CALIFORNIA,90020,Service Station or Gas Station,ARB,,,,-118.29446121761099,34.06366303871843
87,11117,CFS 128 ALAMEDA,1631 S ALAMEDA ST,LOS ANGELES,CALIFORNIA,90021,Service Station or Gas Station,ARB,,,YES,-118.23948392794078,34.0218272381368
88,3385,WASHINGTON MOBIL,1690 S ALAMEDA ST,LOS ANGELES,CALIFORNIA,90021,Service Station or Gas Station,ARB,,,,-118.23944214363986,34.020435366399276
89,3381,PANROSE CORP,1317 E WASHINGTON BLVD,LOS ANGELES,CALIFORNIA,90021,Service Station or Gas Station,ARB,,,YES,-118.24993520484568,34.024333650477736
90,3355,G&M OIL COMPANY #111,3742 S LA BREA AVE,LOS ANGELES,CALIFORNIA,90015,Service Station or Gas Station,ARB,,,YES,-118.35552156207031,34.019269076107186
91,3383,BOUTROS SHELL,1520 S SANTA FE AVE,LOS ANGELES,CALIFORNIA,90021,Service Station or Gas Station,ARB,,,,-118.22985123464662,34.026426604004754
92,3394,ARCO AMPM,4625 E OLYMPIC BLVD,LOS ANGELES,CALIFORNIA,90022,Service Station or Gas Station,ARB,,,,-118.17044441427817,34.01886660251184
93,3392,"Atlanticpetroleum, Inc.",301 S ATLANTIC BLVD,LOS ANGELES,CALIFORNIA,90022,Service Station or Gas Station,ARB,,,,-118.15379656026288,34.03214579309407
94,1613,USA #63286,5756 WHITTIER BLVD,COMMERCE,CALIFORNIA,90022,Service Station or Gas Station,ARB,,,,-118.14667086746641,34.018120170609606
95,3396,UNITED PACIFIC #183,5200 WHITTIER BLVD,LOS ANGELES,CALIFORNIA,90022,Service Station or Gas Station,ARB,,,YES,-118.1572643928373,34.02036249703179
96,3397,UNITED PACIFIC #154,705 N EASTERN,LOS ANGELES,CALIFORNIA,90022,Service Station or Gas Station,ARB,,,,-118.17369257575162,34.04433912605003
97,3398,RADA INDUSTRIES INC,1060 S DITMAN AVE,LOS ANGELES,CALIFORNIA,90023,Service Station or Gas Station,ARB,,,YES,-118.18917786356742,34.02142695349129
98,3395,"EDCO Stations, Inc.",5050 E OLYMPIC BLVD,LOS ANGELES,CALIFORNIA,90022,Service Station or Gas Station,ARB,,,YES,-118.16164334386504,34.016901487613715
99,3399,EMILE'S MOBIL,1166 S SOTO ST,LOS ANGELES,CALIFORNIA,90023,Service Station or Gas Station,ARB,,,,-118.21919809231797,34.028277713645686
100,3390,GSE 76 SOTO,1171 S SOTO ST,LOS ANGELES,CALIFORNIA,90023,Service Station or Gas Station,ARB,,,YES,-118.21941700978704,34.02841762027714
101,10151,AMMEX II,3154 E OLYMPIC BLVD,LOS ANGELES,CALIFORNIA,90023,Service Station or Gas Station,ARB,,,YES,-118.21131804818924,34.02046075605933
102,3400,HANNAS SHELL,1410 SOUTH SOTO ST,LOS ANGELES,CALIFORNIA,90023,Service Station or Gas Station,ARB,,,YES,-118.2198308328265,34.02375911319271
103,3402,"M&M AUTO SPA, INC.",2740 E OLYMPIC BLVD,LOS ANGELES,CALIFORNIA,90023,Service Station or Gas Station,ARB,,,YES,-118.21899868564066,34.023856141947505
104,3407,CHEVRON STATION# 93100,10984 LE CONTE AVE,LOS ANGELES,CALIFORNIA,90024,Service Station or Gas Station,ARB,,,YES,-118.44843376110902,34.063576859384746
105,3405,UNITED PACIFIC #134,3915 E OLYMPIC BLVD,LOS ANGELES,CALIFORNIA,90023,Service Station or Gas Station,ARB,,,,-118.19166277671563,34.0189231923517
106,12876,CFS 2 OLYMPIC,2655 E OLYMPIC BLVD,LOS ANGELES,CALIFORNIA,90023,Service Station or Gas Station,ARB,,,YES,-118.2207501387078,34.024745252191885
107,8157,BLUE WAVE CAR WASH,11602 SANTA MONICA BLVD,LOS ANGELES,CALIFORNIA,90025,Service Station or Gas Station,ARB,,,,-118.4539989368013,34.04459458747044
108,3409,GOLDENWEST TRIANGLE INC,10857 SANTA MONICA BLVD,LOS ANGELES,CALIFORNIA,90025,Service Station or Gas Station,ARB,,,,-118.4369542236583,34.04993034790744
109,13395,GLEN PETRO INC,300 S ATLANTIC BLVD,EAST LOS ANGELES,CALIFORNIA,90022,Service Station or Gas Station,ARB,,,,-118.15354593449709,34.03203628264851
110,3391,Quan Service Center,250 S ATLANTIC BLVD,LOS ANGELES,CALIFORNIA,90022,Service Station or Gas Station,ARB,,,YES,-118.15211151853164,34.03365808765083
111,3404,MID CITY ARCO,3401 WHITTIER BLVD,LOS ANGELES,CALIFORNIA,90023,Service Station or Gas Station,ARB,,,,-118.20088752583848,34.02780582587834
112,3415,SEPULVEDA WEST CAR WASH,2001 S SEPULVEDA BLVD,LOS ANGELES,CALIFORNIA,90025,Other,ARB,,,,-118.44032850245821,34.04291970358163
113,3408,CENTURY CITY 76,10389 SANTA MONICA BLVD,CENTURY CITY,CALIFORNIA,90025,Service Station or Gas Station,ARB,,,,-118.4234359438136,34.05809127099555
114,10933,NONOS 76,11954 SANTA MONICA BLVD,LOS ANGELES,CALIFORNIA,90025,Service Station or Gas Station,ARB,,,,-118.46127635961615,34.04138591342936
115,3410,CHEVRON STATION# 91965,10867 SANTA MONICA BLVD,LOS ANGELES,CALIFORNIA,90025,Service Station or Gas Station,ARB,,,,-118.43722584769452,34.04984424861336
116,3414,"The Corner Enterprises, Inc",1660 S SEPULVEDA BLVD,WEST LOS ANGELES,CALIFORNIA,90025,Service Station or Gas Station,ARB,,,,-118.44459092293259,34.04809890913753
117,3412,SINACO OIL 2 CORP,11305 SANTA MONICA BLVD,LOS ANGELES,CALIFORNIA,90025,Service Station or Gas Station,ARB,,,,-118.44863723721858,34.046500416361305
118,3419,ARCO AMPM,1605 GLENDALE BLVD,LOS ANGELES,CALIFORNIA,90026,Service Station or Gas Station,ARB,,,,-118.2601738577372,34.083775900537546
119,3420,SUNSET PETRO INC,2035 W SUNSET BLVD,LOS ANGELES,CALIFORNIA,90026,Service Station or Gas Station,ARB,,,,-118.26283760467155,34.07778606767309
120,11743,SILVER LAKE MOBIL,515 N SILVER LAKE BLVD,LOS ANGELES,CALIFORNIA,90026,Service Station or Gas Station,ARB,,,,-118.279938904057,34.077901556811604
121,12513,SANTA MONICA CHEVRON,11261 SANTA MONICA BLVD,LOS ANGELES,CALIFORNIA,90025,Service Station or Gas Station,ARB,,,,-118.44776198642634,34.04673796958183
122,3416,UNITED PACIFIC #145,1465 GLENDALE BLVD,LOS ANGELES,CALIFORNIA,90026,Service Station or Gas Station,ARB,,,,-118.26030380077962,34.081200739522686
123,3417,UNITED PACIFIC #188,1467 W SUNSET BLVD,LOS ANGELES,CALIFORNIA,90026,Service Station or Gas Station,ARB,,,,-118.25415859744116,34.075441916411464
124,3422,CIRCLE K MOBIL STORE 2211228,2608 W TEMPLE ST,LOS ANGELES,CALIFORNIA,90026,Service Station or Gas Station,ARB,,,YES,-118.2749663743985,34.072511639201124
125,3424,"DEEPZ INVESTMENTS, INC",501 GLENDALE BLVD,LOS ANGELES,CALIFORNIA,90026,Service Station or Gas Station,ARB,,,,-118.26094602104189,34.0681575751122
126,3418,MAGIC GAS & AUTO SERVICE,1600 ECHO PARK AVE,LOS ANGELES,CALIFORNIA,90026,Service Station or Gas Station,ARB,,,,-118.25446878350739,34.08149436187544
127,11721,SUNSET SATER OIL,5007 SUNSET BLVD,LOS ANGELES,CALIFORNIA,90027,Service Station or Gas Station,ARB,,,YES,-118.29848408836986,34.09819494763886
128,3421,VAZIN CORP ARCO AMPM,2106 W TEMPLE ST,LOS ANGELES,CALIFORNIA,90026,Service Station or Gas Station,ARB,,,,-118.26813446403412,34.07025591108156
129,3429,LOS FELIZ SERVICE STATION,2134 N VERMONT AVE,LOS ANGELES,CALIFORNIA,90027,Service Station or Gas Station,ARB,,,,-118.29173434366487,34.11085158343405
130,3426,SUNRISE ENERGY,1300 N WESTERN AVE,LOS ANGELES,CALIFORNIA,90027,Service Station or Gas Station,ARB,,,YES,-118.30914373099824,34.09491215147481
131,3432,UNITED PACIFIC #177,4456 LOS FELIZ BLVD,LOS ANGELES,CALIFORNIA,90027,Service Station or Gas Station,ARB,,,,-118.2864779870693,34.11201300749444
132,3433,USA #63183,5025 W SUNSET BLVD,LOS ANGELES,CALIFORNIA,90027,Service Station or Gas Station,ARB,,,YES,-118.29887391659781,34.09819023249343
133,8167,SHELL #68556,5657 SUNSET BLVD,LOS ANGELES,CALIFORNIA,90028,Service Station or Gas Station,ARB,,,YES,-118.31338697073198,34.09811627314768
134,3438,RHA INC dba ART'S 76,5890 HOLLYWOOD BLVD,LOS ANGELES,CALIFORNIA,90028,Service Station or Gas Station,ARB,,,,-118.31789247975401,34.10162937309722
135,3437,CIRCLE K MOBIL SITE #2211262,5857 WEST SUNSET BLVD,LOS ANGELES,CALIFORNIA,90028,Service Station or Gas Station,ARB,,,,-118.31701515062849,34.098112941159435
136,3434,FOUNTAIN SHELL,1309 N LA BREA AVE,LOS ANGELES,CALIFORNIA,90028,Service Station or Gas Station,ARB,,,,-118.3441556044974,34.09453111771708
137,3428,Mike's Station Inc,1868 N WESTERN AVE,LOS ANGELES,CALIFORNIA,90027,Service Station or Gas Station,ARB,,,YES,-118.30925131779398,34.10488441438447
138,3435,7 DAYS STATION INC,1787 N HIGHLAND AVE,LOS ANGELES,CALIFORNIA,90028,Service Station or Gas Station,ARB,,,,-118.33884104287966,34.10358068160335
139,3436,HOLLYWOOD SERVICE STATION INC,5700 HOLLYWOOD BLVD,LOS ANGELES,CALIFORNIA,90028,Service Station or Gas Station,ARB,,,YES,-118.31370875625394,34.10166308598279
140,3448,SHELTER GAS & FOOD MART,924 N VIRGIL AVE,LOS ANGELES,CALIFORNIA,90029,Service Station or Gas Station,ARB,,,YES,-118.28681076410531,34.08832203283573
141,11660,PETROL X,4501 MELROSE AVE,LOS ANGELES,CALIFORNIA,90029,Service Station or Gas Station,ARB,,,,-118.29785381650025,34.08362380989108
142,3443,K NALBANDIAN SERVICE CENTER,1270 N VERMONT AVE,LOS ANGELES,CALIFORNIA,90029,Service Station or Gas Station,ARB,,,,-118.29167708562883,34.094946021741784
143,8908,ARCO SMOG PROS,6100 FRANKLIN AVE,LOS ANGELES,CALIFORNIA,90028,Service Station or Gas Station,ARB,,,YES,-118.32243544374056,34.105173478073674
144,3445,MELROSE CHEVRON,4590 MELROSE AVE,LOS ANGELES,CALIFORNIA,90029,Service Station or Gas Station,ARB,,,YES,-118.3002220210293,34.08349211317069
145,10365,MELROSE 76,4600 MELROSE AVE,LOS ANGELES,CALIFORNIA,90029,Service Station or Gas Station,ARB,,,YES,-118.3004787307087,34.08349211317069
146,3439,YRT INC dba Franklin 76,6051 FRANKLIN AVE,LOS ANGELES,CALIFORNIA,90028,Service Station or Gas Station,ARB,,,,-118.32132012972009,34.105295667161485
147,3452,BROADWAY FUEL SERVICE,3130 N BROADWAY,LOS ANGELES,CALIFORNIA,90031,Service Station or Gas Station,ARB,,,YES,-118.20866557785402,34.07368315185619
148,3451,BROADWAY GAS MART INC,2829 N BROADWAY,LOS ANGELES,CALIFORNIA,90031,Service Station or Gas Station,ARB,,,YES,-118.21267489403104,34.073732464382026
149,3450,USA #63070,2214 N BROADWAY,LOS ANGELES,CALIFORNIA,90031,Service Station or Gas Station,ARB,,,YES,-118.217686715969,34.07357172225729
150,3453,B & K SHELL,3200 N BROADWAY,LOS ANGELES,CALIFORNIA,90031,Service Station or Gas Station,ARB,,,YES,-118.20774268907371,34.07368724287222
151,11367,NORTH MAIN SERVICE,2829 N MAIN ST,LOS ANGELES,CALIFORNIA,90031,Service Station or Gas Station,ARB,,,YES,-118.21246967323665,34.06606480864421
152,3449,BROADWAY 76,2001 N BROADWAY,LOS ANGELES,CALIFORNIA,90031,Service Station or Gas Station,ARB,,,,-118.22014188404056,34.072688970220085
153,3446,ARCO AMPM,4666 SANTA MONICA BLVD,LOS ANGELES,CALIFORNIA,90029,Service Station or Gas Station,ARB,,,YES,-118.29090599791334,34.09082249796015
154,13354,7-ELEVEN INC #34990,5530 VALLEY BLVD,LOS ANGELES,CALIFORNIA,90032,Service Station or Gas Station,ARB,,,,-118.16240556966117,34.07422025126376
155,3447,UNITED PACIFIC #148,800 N WESTERN AVE,LOS ANGELES,CALIFORNIA,90029,Service Station or Gas Station,ARB,,,YES,-118.30906292961036,34.0845127537608
156,13230,METRO GAS COMPANY INC,2925 E CESAR E CHAVEZ AVE,LOS ANGELES,CALIFORNIA,90033,Service Station or Gas Station,ARB,,,YES,-118.20052673851802,34.0436698137112
157,3454,ASK AM/PM,4860 S HUNTINGTON DR,LOS ANGELES,CALIFORNIA,90032,Service Station or Gas Station,ARB,,,,-118.17814391500954,34.086015899514386
158,12816,HUNTINGTON DRIVE SHELL,4590 HUNTINGTON DR N,LOS ANGELES,CALIFORNIA,90032,Service Station or Gas Station,ARB,,,,-118.18818796989878,34.08595962173933
159,8754,PRONTO FUEL,918 N SOTO ST,LOS ANGELES,CALIFORNIA,90033,Service Station or Gas Station,ARB,,,YES,-118.20398253096884,34.05266622046994
160,3463,WINALL OIL #1,401 S SOTO ST,LOS ANGELES,CALIFORNIA,90033,Service Station or Gas Station,ARB,,,,-118.2118693029258,34.040514996470165
161,3411,WORLD OIL MARKETING COMPANY #60,10991 SANTA MONICA BLVD,LOS ANGELES,CALIFORNIA,90025,Service Station or Gas Station,ARB,,,,-118.44112972915356,34.048824947113765
162,3462,SHELL #135547,2005 E 4TH ST,LOS ANGELES,CALIFORNIA,90033,Service Station or Gas Station,ARB,,,YES,-118.21655732036393,34.04280502383296
163,3457,SOTO MOBIL MART,1010 N SOTO ST,LOS ANGELES,CALIFORNIA,90033,Service Station or Gas Station,ARB,,,,-118.20356079569403,34.05320738391386
164,3461,GSE 76 MARENGO,1848 MARENGO ST,LOS ANGELES,CALIFORNIA,90033,Service Station or Gas Station,ARB,,,YES,-118.21074638423815,34.05802975826695
165,3466,PARSICO INC,2305 S LA CIENEGA BLVD,LOS ANGELES,CALIFORNIA,90034,Service Station or Gas Station,ARB,,,,-118.37746979629392,34.037451883098086
166,3467,CHEVIOT CHEVRON,3029 S ROBERTSON BLVD,LOS ANGELES,CALIFORNIA,90034,Service Station or Gas Station,ARB,,,,-118.39028413990096,34.032465011950904
167,3460,GSE 76 4TH,1800 E 4TH AVE,LOS ANGELES,CALIFORNIA,90033,Service Station or Gas Station,ARB,,,YES,-118.21959225258026,34.04300214893025
168,3465,CHEVRON STATION# 93691,2065 S LA CIENEGA BLVD,LOS ANGELES,CALIFORNIA,90034,Service Station or Gas Station,ARB,,,,-118.37732849391467,34.03901873142951
169,3468,National Robertson Carwash,3071 S ROBERTSON BLVD,LOS ANGELES,CALIFORNIA,90034,Service Station or Gas Station,ARB,,,,-118.39069574791027,34.03180856261528
170,3464,CIRCLE K MOBIL STORE 2211234,10611 NATIONAL BLVD,LOS ANGELES,CALIFORNIA,90034,Service Station or Gas Station,ARB,,,,-118.41535618543946,34.03094678096938
171,3469,AL'S WESTSIDE #2,3479 MOTOR AVE,LOS ANGELES,CALIFORNIA,90034,Service Station or Gas Station,ARB,,,,-118.40879540898077,34.02667602377972
172,3473,WORLD OIL MARKETING COMPANY #17,1460 S LA CIENEGA BLVD,LOS ANGELES,CALIFORNIA,90035,Service Station or Gas Station,ARB,,,,-118.37610797360394,34.051513707791585
173,3475,GSE 76 ROBERTSON,1701 S ROBERTSON BLVD,LOS ANGELES,CALIFORNIA,90035,Service Station or Gas Station,ARB,,,,-118.38558975796079,34.04878461431868
174,3476,JINS LA CLEVEGA SHELL,8500 W PICO BLVD,LOS ANGELES,CALIFORNIA,90035,Service Station or Gas Station,ARB,,,,-118.376240789081,34.05328863406345
175,3472,PROMART,1004 S LA CIENEGA BLVD,LOS ANGELES,CALIFORNIA,90035,Service Station or Gas Station,ARB,,,,-118.37612147782379,34.05934256610671
176,9478,ARCO #63020,10801 SANTA MONICA BLVD,LOS ANGELES,CALIFORNIA,90025,Service Station or Gas Station,ARB,,,,-118.4349341943574,34.05056564878589
177,3483,BEVERLY CHEVRON,7020 BEVERLY BLVD,LOS ANGELES,CALIFORNIA,90036,Service Station or Gas Station,ARB,,,,-118.3435766029777,34.07611527659889
178,3471,SINACO OIL 4 CORP,9930 NATIONAL BLVD,LOS ANGELES,CALIFORNIA,90034,Service Station or Gas Station,ARB,,,,-118.40267105012869,34.030072665121615
179,9297,ARCO #69640,8770 W OLYMPIC BLVD,LOS ANGELES,CALIFORNIA,90035,Service Station or Gas Station,ARB,,,,-118.38325241816445,34.05931398924943
180,3482,MIRACLE MILE 76,5436 W 6TH ST,LOS ANGELES,CALIFORNIA,90036,Service Station or Gas Station,ARB,,,,-118.34482171704845,34.06485032818033
181,3478,B&F WORLD INDUSTRIAL INC,9448 W PICO BLVD,LOS ANGELES,CALIFORNIA,90035,Service Station or Gas Station,ARB,,,,-118.39499164834574,34.055207007597495
182,3491,GSE 76 VERNON,505 W VERNON AVE,LOS ANGELES,CALIFORNIA,90037,Service Station or Gas Station,ARB,,,YES,-118.28289303578478,34.00381597862469
183,3480,LA BREA CHEVRON,307 N LA BREA AVE,LOS ANGELES,CALIFORNIA,90036,Service Station or Gas Station,ARB,,,,-118.34410102104519,34.07729137399789
184,3477,GSE 76 PICO,9081 W PICO BLVD,LOS ANGELES,CALIFORNIA,90035,Service Station or Gas Station,ARB,,,,-118.38942867599246,34.055321112679366
185,3487,SHARZAD PETRO ENT CORP,1355 W MARTIN LUTHER KING JR BLVD,LOS ANGELES,CALIFORNIA,90037,Service Station or Gas Station,ARB,,,YES,-118.29948062533043,34.010918396067325
186,3486,GOLD STAR GAS,1100 W MARTIN LUTHER KING JR BLVD,LOS ANGELES,CALIFORNIA,90037,Service Station or Gas Station,ARB,,,YES,-118.29414804849344,34.010819503917176
187,3481,MV PETROLEUM CORP,5301 W OLYMPIC BLVD,LOS ANGELES,CALIFORNIA,90036,Service Station or Gas Station,ARB,,,,-118.34590838316512,34.05727530890861
188,3490,YOUNG'S SHELL,4403 S FIGUEROA ST,LOS ANGELES,CALIFORNIA,90037,Service Station or Gas Station,ARB,,,YES,-118.28276912359605,34.003698136859704
189,3496,VINE MOBIL,6301 SANTA MONICA BLVD,LOS ANGELES,CALIFORNIA,90038,Service Station or Gas Station,ARB,,,YES,-118.32666531775001,34.090816566031876
190,3488,BROADWAY MART,315 W VERNON AVE,LOS ANGELES,CALIFORNIA,90037,Service Station or Gas Station,ARB,,,YES,-118.27985089550224,34.00384449972404
191,3494,ARCO,1255 N HIGHLAND AVE,LOS ANGELES,CALIFORNIA,90038,Service Station or Gas Station,ARB,,,,-118.33868035381515,34.09357077487157
192,3499,GSE 76 SANTA MONICA,6678 SANTA MONICA BLVD,LOS ANGELES,CALIFORNIA,90038,Service Station or Gas Station,ARB,,,,-118.3357917826645,34.090671526969636
193,3485,COMILLA CORP,1010 W MARTIN LUTHER KING JR BLVD,LOS ANGELES,CALIFORNIA,90037,Service Station or Gas Station,ARB,,,YES,-118.29190770057974,34.01081605141986
194,3489,CHEVRON STATION# 207669,4000 S FIGUEROA ST,LOS ANGELES,CALIFORNIA,90037,Service Station or Gas Station,ARB,,,YES,-118.28266497760647,34.01111842597473
195,3493,CIRCLE K MOBIL STORE 2211220,1051 N HIGHLAND AVE,LOS ANGELES,CALIFORNIA,90038,Service Station or Gas Station,ARB,,,,-118.33864995583066,34.08982541870823
196,3495,USA #63037,5175 MELROSE AVE,LOS ANGELES,CALIFORNIA,90038,Service Station or Gas Station,ARB,,,YES,-118.31302743436845,34.08357053135517
197,8163,MANSHADI INVESTMENT LLC,3050 LOS FELIZ BLVD,LOS ANGELES,CALIFORNIA,90039,Service Station or Gas Station,ARB,,,,-118.26563511856575,34.12497517806223
198,3498,CIRCLE K MOBIL STORE 2211339,6601 MELROSE AVE,LOS ANGELES,CALIFORNIA,90038,Service Station or Gas Station,ARB,,,,-118.33866888655973,34.08351257364657
199,3504,GSE 76 LOS FELIZ,3053 LOS FELIZ BLVD,LOS ANGELES,CALIFORNIA,90039,Service Station or Gas Station,ARB,,,,-118.26574102003184,34.12504978671842
200,3497,"ABNER PETROLEUM, INC.",6537 MELROSE AVE,LOS ANGELES,CALIFORNIA,90038,Service Station or Gas Station,ARB,,,,-118.33811072772775,34.08351703338459
201,11382,VALERO STATION & FOOD MART,2918 RIVERSIDE DR,LOS ANGELES,CALIFORNIA,90039,Service Station or Gas Station,ARB,,,,-118.26517585907852,34.11110648457679
202,3501,"ROGER'S GAS + MINI MART, LLC",2466 RIVERSIDE DR,LOS ANGELES,CALIFORNIA,90039,Service Station or Gas Station,ARB,,,,-118.25606224637545,34.10557895180733
203,3503,VALERO GLENDALE BLVD,3047 GLENDALE BLVD,LOS ANGELES,CALIFORNIA,90039,Service Station or Gas Station,ARB,,,,-118.26351127152778,34.11579215658293
204,8861,LOS FELIZ OIL,3073 LOS FELIZ BLVD,LOS ANGELES,CALIFORNIA,90039,Service Station or Gas Station,ARB,,,,-118.26610080820555,34.124864653181426
205,3500,HELO CHEVRON,2427 FLETCHER DR,LOS ANGELES,CALIFORNIA,90039,Service Station or Gas Station,ARB,,,,-118.25634993590064,34.106279478715095
206,9164,SANTA MONICA SHELL,11574 SANTA MONICA BLVD,WEST LOS ANGELES,CALIFORNIA,90025,Service Station or Gas Station,ARB,,,,-118.45356840525751,34.04477377738807
207,3509,7-ELEVEN INC #33459,5536 E WASHINGTON BLVD,COMMERCE,CALIFORNIA,90040,Service Station or Gas Station,ARB,,,,-118.1601299962022,34.000387472504
208,3505,ATWATER 76,3070 GLENDALE BLVD,LOS ANGELES,CALIFORNIA,90039,Service Station or Gas Station,ARB,,,,-118.26300873576444,34.11576606185443
209,3512,RILLEY GAS & FOOD INC.,7667 E SLAUSON AVE,COMMERCE,CALIFORNIA,90040,Service Station or Gas Station,ARB,,,,-118.12666384326165,33.97590643893116
210,12772,COMMERCE (LOC. NO. 569),6333 TELEGRAPH RD,COMMERCE,CALIFORNIA,90040,Hypermart,ARB,,,,-118.14281535064777,33.99451207836987
211,3388,CHEVRON STATION# 98119,7368 N FIGUEROA ST,LOS ANGELES,CALIFORNIA,90041,Service Station or Gas Station,ARB,,,,-118.18764156610521,34.13751281106757
212,8168,ARCO,6100 E WASHINGTON BLVD,COMMERCE,CALIFORNIA,90040,Service Station or Gas Station,ARB,,,,-118.14913270491026,33.99667508818501
213,3511,RASTAAR LLC,6810 E SLAUSON AVE,COMMERCE,CALIFORNIA,90040,Service Station or Gas Station,ARB,,,,-118.138776191368,33.9810390533099
214,3517,ARCO #1880,4380 EAGLE ROCK BLVD,LOS ANGELES,CALIFORNIA,90041,Service Station or Gas Station,ARB,,,,-118.22104371879243,34.123765848915006
215,3516,TONY CHEVRON,2960 W BROADWAY,LOS ANGELES,CALIFORNIA,90041,Service Station or Gas Station,ARB,,,,-118.22813631563832,34.145473745617096
216,3506,G&M OIL COMPANY #51,2155 S ATLANTIC BLVD,COMMERCE,CALIFORNIA,90040,Service Station or Gas Station,ARB,,,,-118.16184991993767,34.007087173534366
217,3518,ROUBENS UNION 76,4755 EAGLE ROCK BLVD,LOS ANGELES,CALIFORNIA,90041,Service Station or Gas Station,ARB,,,,-118.21640570995535,34.131701120410554
218,3521,AVENUE 64 FUEL,405 N AVENUE 64,LOS ANGELES,CALIFORNIA,90042,Service Station or Gas Station,ARB,,,,-118.17986838571728,34.11728447719699
219,3519,SHEIK MAIZON CORP,6405 YORK BLVD,LOS ANGELES,CALIFORNIA,90042,Service Station or Gas Station,ARB,,,,-118.18124531881622,34.114411488599515
220,8161,WORLD AUTO SERVICE,2200 COLORADO BLVD,LOS ANGELES,CALIFORNIA,90041,Service Station or Gas Station,ARB,,,,-118.21421467456743,34.139075036883575
221,3520,GRIGORIAN'S INC,105 N AVENUE 52,LOS ANGELES,CALIFORNIA,90042,Unknown,ARB,,,YES,-118.19959391222905,34.10652867995477
222,3513,CT PROPANE,1871 COLORADO BLVD,LOS ANGELES,CALIFORNIA,90041,Service Station or Gas Station,ARB,,,,-118.20830366907887,34.13940349177788
223,3525,MOBIL GAS STATION,6174 YORK BLVD,LOS ANGELES,CALIFORNIA,90042,Service Station or Gas Station,ARB,,,,-118.1847831726052,34.11582293857791
224,3510,COMMERCE CHEVRON,6150 E TELEGRAPH RD,COMMERCE,CALIFORNIA,90040,Service Station or Gas Station,ARB,,,,-118.14593905764127,33.9976010346602
225,3524,FIVE STAR GASOLINE,5404 YORK BLVD,LOS ANGELES,CALIFORNIA,90042,Service Station or Gas Station,ARB,,,,-118.19902019062911,34.119895360182866
226,3515,GLEN ROCK CAR WASH,2711 COLORADO BLVD,LOS ANGELES,CALIFORNIA,90041,Service Station or Gas Station,ARB,,,,-118.22400756229898,34.14262110957686
227,3528,ARCO FLORENCE,3411 W FLORENCE AVE,LOS ANGELES,CALIFORNIA,90043,Service Station or Gas Station,ARB,,,YES,-118.33161770978933,33.97458524491326
228,3514,EAGLE ROCK MOBIL,2207 COLORADO BLVD,LOS ANGELES,CALIFORNIA,90041,Service Station or Gas Station,ARB,,,,-118.21430752956873,34.139203569789046
229,3523,Highland Park Shell Inc.,5137 N FIGUEROA ST,LOS ANGELES,CALIFORNIA,90042,Service Station or Gas Station,ARB,,,YES,-118.20037937470825,34.10593190153614
230,3530,SHELL #68557,4660 W SLAUSON AVE,LOS ANGELES,CALIFORNIA,90043,Service Station or Gas Station,ARB,,,,-118.35796097312026,33.98855173337598
231,3534,CIRCLE K MOBIL STORE 2211292,7130 CRENSHAW BLVD,LOS ANGELES,CALIFORNIA,90043,Service Station or Gas Station,ARB,,,YES,-118.3308182997246,33.975306764695645
232,3538,WINALL OIL #2,615 W FLORENCE AVE,LOS ANGELES,CALIFORNIA,90044,Service Station or Gas Station,ARB,,,YES,-118.28416768539023,33.97470941340889
233,3532,LEES ARCO,5804 CRENSHAW BLVD,LOS ANGELES,CALIFORNIA,90043,Service Station or Gas Station,ARB,,,YES,-118.33062016199077,33.98888109838415
234,3522,HT UNION 76 #2 SERVICE,475 S AVE 60,LOS ANGELES,CALIFORNIA,90042,Service Station or Gas Station,ARB,,,,-118.1844892148053,34.105914084167836
235,3531,SLAUSON GAS STATION,4661 W SLAUSON AVE,LOS ANGELES,CALIFORNIA,90043,Service Station or Gas Station,ARB,,,,-118.35797206086173,33.988660992910624
236,3536,GSE 76 FLORENCE,1350 W FLORENCE AVE,LOS ANGELES,CALIFORNIA,90044,Service Station or Gas Station,ARB,,,,-118.29921008317862,33.974529415900015
237,11797,CRENSHAW ENERGY AND RETAIL LLC,5805 CRENSHAW BLVD,LOS ANGELES,CALIFORNIA,90043,Service Station or Gas Station,ARB,,,YES,-118.33101522607164,33.98889933034002
238,8566,CIRCLE K MOBIL STORE 2211145,7601 S SEPULVEDA BLVD,LOS ANGELES,CALIFORNIA,90045,Service Station or Gas Station,ARB,,,,-118.39498110199611,33.97165925567032
239,12941,GAS STATION,7550 S SEPULVEDA BLVD,LOS ANGELES,CALIFORNIA,90045,Service Station or Gas Station,ARB,,,,-118.39475552774522,33.972032734223546
240,3541,5201 W CENTURY BLVD,5201 W CENTURY BLVD,LOS ANGELES,CALIFORNIA,90045,Service Station or Gas Station,ARB,,,,-118.3701627606028,33.94552467372491
241,12760,UNITED PACIFIC #5624,5552 W CENTURY BLVD,LOS ANGELES,CALIFORNIA,90045,Service Station or Gas Station,ARB,,,,-118.37785656322968,33.94527725494148
242,3552,UNITED PACIFIC #5701,8525 S SEPULVEDA BLVD,LOS ANGELES,CALIFORNIA,90045,Service Station or Gas Station,ARB,,,,-118.39627621747331,33.96060820200713
243,3551,RVT'S PLAYA VISTA,8300 LINCOLN BLVD,LOS ANGELES,CALIFORNIA,90045,Service Station or Gas Station,ARB,,,,-118.42155693180683,33.962778452264054
244,11958,MSRK AMERICA INC,8126 LINCOLN BLVD,LOS ANGELES,CALIFORNIA,90045,Service Station or Gas Station,ARB,,,,-118.42308732701835,33.964606893593405
245,3550,UNITED PACIFIC #5625,7400 LA TIJERA BLVD,LOS ANGELES,CALIFORNIA,90045,Service Station or Gas Station,ARB,,,,-118.37931216092733,33.97046165548118
246,3543,SHELL #68555,5551 W CENTURY,LOS ANGELES,CALIFORNIA,90045,Service Station or Gas Station,ARB,,,,-118.37807299047594,33.9455840451677
247,3546,G&M OIL COMPANY #194,6101 W MANCHESTER AVE,LOS ANGELES,CALIFORNIA,90045,Service Station or Gas Station,ARB,,,,-118.39138971965968,33.95999360711943
248,3547,WESTCHESTER MOBIL,6600 W MANCHESTER AVE,LOS ANGELES,CALIFORNIA,90045,Service Station or Gas Station,ARB,,,,-118.40452333338496,33.959715099672245
249,3542,YOUNG MOBIL,5215 W CENTINELA AVE,LOS ANGELES,CALIFORNIA,90045,Service Station or Gas Station,ARB,,,,-118.37111047336957,33.97739516315646
250,3548,P. FRIO INC.,7360 LA TIJERA BLVD,LOS ANGELES,CALIFORNIA,90045,Service Station or Gas Station,ARB,,,,-118.37854173960943,33.97115803291708
251,3549,lax am pm,7370 LA TIJERA BLVD,LOS ANGELES,CALIFORNIA,90045,Service Station or Gas Station,ARB,,,,-118.37862116953117,33.971090833775136
252,3544,TMP CORPORATION,5800 W MANCHESTER AVE,LOS ANGELES,CALIFORNIA,90045,Service Station or Gas Station,ARB,,,,-118.38258291247124,33.959774186030025
253,3545,CENTINELA CHEVRON,5975 W CENTINELA AVE,LOS ANGELES,CALIFORNIA,90045,Service Station or Gas Station,ARB,,,,-118.38694763532503,33.977363764226524
254,3560,NORM'S 76 SERVICE,7979 SUNSET BLVD,LOS ANGELES,CALIFORNIA,90046,Service Station or Gas Station,ARB,,,,-118.36409128818224,34.098074690294915
255,3554,SUNSET OIL CORPORATION,7100 W SUNSET BLVD,LOS ANGELES,CALIFORNIA,90046,Service Station or Gas Station,ARB,,,,-118.34415839779166,34.09791823703716
256,3557,"Sunset Fairfax Oil, Inc.",7865 W SUNSET BLVD,LOS ANGELES,CALIFORNIA,90046,Service Station or Gas Station,ARB,,,,-118.36073623688763,34.09812046218973
257,11941,SUN FAX ARCO,7901 SUNSET BLVD,LOS ANGELES,CALIFORNIA,90046,Service Station or Gas Station,ARB,,,,-118.36157321073496,34.098110400574726
258,3556,UNITED PACIFIC #48,7861 MELROSE AVE,LOS ANGELES,CALIFORNIA,90046,Service Station or Gas Station,ARB,,,,-118.36069555335693,34.08384428408665
259,3562,CHEVRON STATION# 95008,8101 W SUNSET BLVD,LOS ANGELES,CALIFORNIA,90046,Service Station or Gas Station,ARB,,,,-118.36525346227737,34.09806746963815
260,3535,IMPERIAL SERVICE & MERCHANDISES INC,11400 S VERMONT AVE,LOS ANGELES,CALIFORNIA,90044,Service Station or Gas Station,ARB,,,YES,-118.29150072407904,33.93096641696677
261,3564,Chevron Florence,1400 W FLORENCE AVE,LOS ANGELES,CALIFORNIA,90047,Service Station or Gas Station,ARB,,,,-118.30032284762112,33.97452529700499
262,3537,RD 786 Enterprises,2138 W CENTURY BLVD,LOS ANGELES,CALIFORNIA,90047,Service Station or Gas Station,ARB,,,YES,-118.31699363254995,33.945421279568635
263,3563,G&M OIL COMPANY #99,12726 S WESTERN AVE,LOS ANGELES,CALIFORNIA,90047,Service Station or Gas Station,ARB,,,,-118.30899169610973,33.91715444102489
264,3313,USA #63199,11259 S VERMONT AVE,LOS ANGELES,CALIFORNIA,90044,Service Station or Gas Station,ARB,,,YES,-118.2919506513013,33.931994392427505
265,3567,DEBORAH AND TWIN,7600 S WESTERN AVE,LOS ANGELES,CALIFORNIA,90047,Service Station or Gas Station,ARB,,,,-118.30891639947215,33.97088586569031
266,3533,Han's Union,5816 S WESTERN AVE,LOS ANGELES,CALIFORNIA,90047,Service Station or Gas Station,ARB,,,YES,-118.30886577213752,33.98933513460898
267,3559,SANTA MONICA UNION 76,7960 SANTA MONICA BLVD,WEST HOLLYWOOD,CALIFORNIA,90046,Service Station or Gas Station,ARB,,,,-118.36350728463333,34.09075625479748
268,3566,KIM MOBIL,1803 W MANCHESTER AVE,LOS ANGELES,CALIFORNIA,90047,Service Station or Gas Station,ARB,,,,-118.30912894704309,33.960033948008444
269,11048,ARCO #63252,1403 CENTURY BLVD,LOS ANGELES,CALIFORNIA,90047,Service Station or Gas Station,ARB,,,YES,-118.30033979714375,33.94552893831005
270,8169,USA #63244,7564 SANTA MONICA BLVD,WEST HOLLYWOOD,CALIFORNIA,90046,Service Station or Gas Station,ARB,,,YES,-118.35505627802468,34.09073026618905
271,13098,FOOD 4 LESS FUEL CENTER #399,11533 S WESTERN AVE,LOS ANGELES,CALIFORNIA,90047,Hypermart,ARB,,,,-118.30920861168791,33.929586654600605
272,3565,WIE'S STATION,1769 W IMPERIAL HWY,LOS ANGELES,CALIFORNIA,90047,Service Station or Gas Station,ARB,,,,-118.30829578542196,33.93109050362403
273,3569,CALOIL 1 INC,6101 W OLYMPIC BLVD,LOS ANGELES,CALIFORNIA,90048,Service Station or Gas Station,ARB,,,,-118.36382076401686,34.05824354600296
274,3571,MAJESTIC CAR WASH,8017 W 3RD ST,LOS ANGELES,CALIFORNIA,90048,Service Station or Gas Station,ARB,,,,-118.3642910455951,34.07197501283676
275,3573,JACOBS UNION SERVICE,8755 W 3RD ST,LOS ANGELES,CALIFORNIA,90048,Service Station or Gas Station,ARB,,,,-118.38332027561006,34.07364373816815
276,3570,UNITED PACIFIC #2,7900 BEVERLY BLVD,LOS ANGELES,CALIFORNIA,90048,Service Station or Gas Station,ARB,,,,-118.36143953190867,34.07604947230541
277,3577,CHEVRON STATION# 99623,11852 SAN VICENTE BLVD,LOS ANGELES,CALIFORNIA,90049,Service Station or Gas Station,ARB,,,,-118.46897547723633,34.05279358245804
278,3572,GOLDENWEST TRIANGLE INC,8489 BEVERLY BLVD,WEST HOLLYWOOD,CALIFORNIA,90048,Service Station or Gas Station,ARB,,,,-118.37620717242291,34.076101278651336
279,3574,CHEVRON STATION# 93050,110 S BARRINGTON AVE,LOS ANGELES,CALIFORNIA,90049,Service Station or Gas Station,ARB,,,,-118.46975804030119,34.064974321308036
280,3578,BRENTWOOD 76 SERVICE,12037 SAN VICENTE BLVD,LOS ANGELES,CALIFORNIA,90049,Service Station or Gas Station,ARB,,,,-118.47411746704734,34.05208925591464
281,3575,CONSERV FUEL SITE #106,11699 SAN VICENTE BLVD,LOS ANGELES,CALIFORNIA,90049,Service Station or Gas Station,ARB,,,,-118.46568377238808,34.05376279261893
282,3581,BEL AIR 76,800 N SEPULVEDA BLVD,LOS ANGELES,CALIFORNIA,90049,Service Station or Gas Station,ARB,,,,-118.46949561093356,34.07785219032649
283,3568,SHELL #68558,8611 S WESTERN AVE,LOS ANGELES,CALIFORNIA,90047,Service Station or Gas Station,ARB,,,,-118.30908664023607,33.95986330884484
284,3580,CHEVRON STATION# 99528,670 N SEPULVEDA BLVD,LOS ANGELES,CALIFORNIA,90049,Service Station or Gas Station,ARB,,,,-118.4687224700658,34.07687537010248
285,10370,UNITED PACIFIC #103,4700 SLAUSON AVE,LOS ANGELES,CALIFORNIA,90056,Service Station or Gas Station,ARB,,,,-118.35870049013538,33.98848983573745
286,3583,SLAUSON 76,4856 W SLAUSON AVE,LOS ANGELES,CALIFORNIA,90056,Service Station or Gas Station,ARB,,,,-118.36175077108106,33.98773952775719
287,8162,Vernon AMPM,3031 E VERNON AVE,VERNON,CALIFORNIA,90058,Service Station or Gas Station,ARB,,,,-118.21987231045865,34.005558144393014
288,8160,7-ELEVEN INC #35639,1800 E SLAUSON BLVD,LOS ANGELES,CALIFORNIA,90058,Service Station or Gas Station,ARB,,,YES,-118.24110637236106,33.98919841247692
289,3579,26TH STREET UNION SERVICE,13060 SAN VICENTE BLVD,LOS ANGELES,CALIFORNIA,90049,Service Station or Gas Station,ARB,,,,-118.4911075580672,34.04839136776755
290,3582,LA BREA GAS,4701 W SLAUSON AVE,LOS ANGELES,CALIFORNIA,90056,Service Station or Gas Station,ARB,,,,-118.35856794535422,33.98861414362807
291,3561,WORLD OIL MARKETING COMPANY #65,8020 SANTA MONICA BLVD,WEST HOLLYWOOD,CALIFORNIA,90046,Service Station or Gas Station,ARB,,,,-118.36528200855768,34.09069518183743
292,3588,USA #63130,600 E ROSECRANS AVE,LOS ANGELES,CALIFORNIA,90059,Service Station or Gas Station,ARB,,,,-118.26507913789177,33.902097996725324
293,11632,VERNON FUEL DIST CENTER,4321 S ALAMEDA ST,VERNON,CALIFORNIA,90058,Service Station or Gas Station,ARB,,,YES,-118.23932059037278,34.004738769378946
294,8165,ARCO AMPM 83398,3278 E SLAUSON AVE,VERNON,CALIFORNIA,90058,Service Station or Gas Station,ARB,,,,-118.20890969522611,33.98913856619204
295,3596,UNITED PACIFIC #101,450 E EL SEGUNDO BLVD,LOS ANGELES,CALIFORNIA,90061,Service Station or Gas Station,ARB,,,,-118.26578713007184,33.91630542345675
296,3585,HOOPER SHELL,11913 COMPTON AVE,LOS ANGELES,CALIFORNIA,90059,Service Station or Gas Station,ARB,,,,-118.24640444131175,33.924355527585696
297,3593,AZIZ SERVICE CENTER,14204 S FIGUEROA ST,LOS ANGELES,CALIFORNIA,90061,Service Station or Gas Station,ARB,,,,-118.2826816267555,33.902787449381414
298,13027,CFS 101 VERNON,5415 SANTA FE AVE,VERNON,CALIFORNIA,90058,Service Station or Gas Station,ARB,,,,-118.23038281941145,33.993371742512096
299,3587,SM Oil Inc,1340 E IMPERIAL HWY,LOS ANGELES,CALIFORNIA,90059,Service Station or Gas Station,ARB,,,,-118.25076539780474,33.92942681449606
300,3584,ANDY SHELL,1150 E IMPERIAL HWY,LOS ANGELES,CALIFORNIA,90059,Service Station or Gas Station,ARB,,,YES,-118.25489526630332,33.92941254585248
301,3646,AM OIL,105 E IMPERIAL HWY,LOS ANGELES,CALIFORNIA,90061,Service Station or Gas Station,ARB,,,YES,-118.27347012914296,33.93106833083896
302,3589,JOHN'S SERVICE STATION INC,105 E EL SEGUNDO BLVD,LOS ANGELES,CALIFORNIA,90061,Service Station or Gas Station,ARB,,,,-118.27363654598959,33.91649448793045
303,3595,Rosecrans Petroleum,14221 S FIGUEROA ST,LOS ANGELES,CALIFORNIA,90061,Service Station or Gas Station,ARB,,,,-118.28281342240135,33.90264945021216
304,3594,KIM'S UNION 76,14216 S AVALON BLVD,LOS ANGELES,CALIFORNIA,90061,Service Station or Gas Station,ARB,,,,-118.2651751342249,33.902892748301895
305,8689,SOUTH CITY CHEVRON,449 IMPERIAL HWY,LOS ANGELES,CALIFORNIA,90061,Service Station or Gas Station,ARB,,,YES,-118.28201703046142,33.93101904169558
306,13376,"Avazen, Inc.",11151 AVALON BLVD,LOS ANGELES,CALIFORNIA,90061,Service Station or Gas Station,ARB,,,YES,-118.26523118716938,33.93390528000479
307,3598,DAVID SERIVCES STATION,1404 W MARTIN LUTHER KING JR BLVD,LOS ANGELES,CALIFORNIA,90062,Service Station or Gas Station,ARB,,,YES,-118.30035176172433,34.01079428782632
308,11087,KING JR GAS STATION,1515 W MARTIN LUTHER KING JR BLVD,LOS ANGELES,CALIFORNIA,90062,Service Station or Gas Station,ARB,,,YES,-118.3039944135112,34.01089793469207
309,3591,MAIN STREET GAS & FOOD MART,11321 S MAIN ST,LOS ANGELES,CALIFORNIA,90061,Service Station or Gas Station,ARB,,,YES,-118.27394349899316,33.93179229857597
310,3614,DELEK ENTERPRISE INC.,2876 S BUNDY DR,LOS ANGELES,CALIFORNIA,90064,Service Station or Gas Station,ARB,,,,-118.44487076767163,34.020194740195336
311,3603,KIMS UNION SERVICE CENTER,3860 E 3RD ST,LOS ANGELES,CALIFORNIA,90063,Service Station or Gas Station,ARB,,,YES,-118.18413590085099,34.03321333242954
312,9481,WESTWOOD CHEVRON,10815 NATIONAL BLVD,LOS ANGELES,CALIFORNIA,90064,Service Station or Gas Station,ARB,,,,-118.42040642191868,34.03098518741664
313,10330,"THREE FOUR R, INC.",4404 WESTERN AVE,LOS ANGELES,CALIFORNIA,90062,Service Station or Gas Station,ARB,,,YES,-118.30885741293912,34.003650985404846
314,3600,CIRCLE K MOBIL STORE 2211296,1600 N EASTERN AVE,LOS ANGELES,CALIFORNIA,90063,Service Station or Gas Station,ARB,,,,-118.17310440744224,34.06024922212415
315,3599,RAFI'S CHEVRON #11,1535 N EASTERN AVE,LOS ANGELES,CALIFORNIA,90063,Service Station or Gas Station,ARB,,,,-118.17280323977754,34.05923462587745
316,3602,RAD ONE OIL COMPANY,3834 E THIRD ST,LOS ANGELES,CALIFORNIA,90063,Service Station or Gas Station,ARB,,,YES,-118.18489291237782,34.03321505642985
317,3612,A1 SHELL,11944 W OLYMPIC BLVD,LOS ANGELES,CALIFORNIA,90064,Service Station or Gas Station,ARB,,,,-118.45256337869684,34.0325400540804
318,3605,JAG OIL INC,10564 PICO BLVD,LOS ANGELES,CALIFORNIA,90064,Service Station or Gas Station,ARB,,,,-118.42092943254714,34.04400045305871
319,3607,WESTWOOD MOBIL-IRANG INC,10863 W OLYMPIC BLVD,LOS ANGELES,CALIFORNIA,90064,Service Station or Gas Station,ARB,,,,-118.43181221496161,34.04391337530215
320,3613,CHEVRON MART,11951 W OLYMPIC BLVD,LOS ANGELES,CALIFORNIA,90064,Service Station or Gas Station,ARB,,,,-118.4528532481787,34.032602092013235
321,3606,WORLD OIL MARKETING COMPANY #63,10691 W PICO BLVD,LOS ANGELES,CALIFORNIA,90064,Service Station or Gas Station,ARB,,,,-118.42454936116395,34.04205454318277
322,3610,UNITED PACIFIC #194,11748 W OLYMPIC BLVD,LOS ANGELES,CALIFORNIA,90064,Service Station or Gas Station,ARB,,,,-118.44900094823505,34.03350135470391
323,3608,SINACO OIL CORP,11280 NATIONAL BLVD,LOS ANGELES,CALIFORNIA,90064,Service Station or Gas Station,ARB,,,,-118.43089124893189,34.026407781194365
324,3609,RIO PETROLEUM INC,11675 W PICO BLVD,LOS ANGELES,CALIFORNIA,90064,Service Station or Gas Station,ARB,,,,-118.44523313869828,34.031912287722086
325,3622,M & J AUTO SERVICE,4236 EAGLE ROCK BLVD,LOS ANGELES,CALIFORNIA,90065,Service Station or Gas Station,ARB,,,,-118.22424177723609,34.12213599138305
326,3619,CHEVRON STATION# 90477,4005 EAGLE ROCK BLVD,LOS ANGELES,CALIFORNIA,90065,Service Station or Gas Station,ARB,,,,-118.228675981711,34.12034157950046
327,8756,FIGUEROA AUTO EXPRESS,4419 N FIGUEROA ST,LOS ANGELES,CALIFORNIA,90065,Service Station or Gas Station,ARB,,,,-118.20763589817801,34.09567278457152
328,3618,Hancor Shell,2600 N FIGUEROA ST,LOS ANGELES,CALIFORNIA,90065,Service Station or Gas Station,ARB,,,,-118.22223536367099,34.08394384623175
329,3621,ARCO,4103 VERDUGO RD,LOS ANGELES,CALIFORNIA,90065,Service Station or Gas Station,ARB,,,,-118.23181370463863,34.1251001946185
330,3620,UNICO GAS STATION,4072 VERDUGO RD,LOS ANGELES,CALIFORNIA,90065,Service Station or Gas Station,ARB,,,,-118.23152700976352,34.12438717612746
331,3616,UNITED PACIFIC #5605,2250 N FIGUEROA ST,LOS ANGELES,CALIFORNIA,90065,Service Station or Gas Station,ARB,,,,-118.22292952787524,34.08332938804097
332,3617,USA #63279,2251 N FIGUEROA ST,LOS ANGELES,CALIFORNIA,90065,Service Station or Gas Station,ARB,,,YES,-118.22287935559763,34.08366871663812
333,3626,UNITED PACIFIC #160,12401 W JEFFERSON BLVD,LOS ANGELES,CALIFORNIA,90066,Service Station or Gas Station,ARB,,,,-118.40927006576072,33.98136257452343
334,8164,FLETCHER CHEVRON,3100 N SAN FERNANDO RD,LOS ANGELES,CALIFORNIA,90065,Service Station or Gas Station,ARB,,,YES,-118.24588505315252,34.11488554283371
335,3623,CULVER INVESTMENT CORP,11305 CULVER BLVD,LOS ANGELES,CALIFORNIA,90066,Service Station or Gas Station,ARB,,,,-118.41208366402975,34.002515959144425
336,3624,UNITED PACIFIC #193,12000 CULVER BLVD,LOS ANGELES,CALIFORNIA,90066,Service Station or Gas Station,ARB,,,YES,-118.41771486165138,33.99480680149288
337,3629,HOLLYWOOD OIL CORPORATION,1934 N CAHUENGA BLVD,HOLLYWOOD,CALIFORNIA,90068,Service Station or Gas Station,ARB,,,,-118.3305849355462,34.106395030806226
338,3628,UNITED PACIFIC #171,3500 S CENTINELA AVE,LOS ANGELES,CALIFORNIA,90066,Service Station or Gas Station,ARB,,,,-118.43876483862627,34.01058953467954
339,3615,SC FUEL STOP INC,2135 SAN FERNANDO RD,LOS ANGELES,CALIFORNIA,90065,Service Station or Gas Station,ARB,,,,-118.23753276332621,34.10331636276013
340,10163,CIRCLE K MOBIL STORE 2211225,3240 CAHUENGA BLVD,HOLLYWOOD,CALIFORNIA,90068,Service Station or Gas Station,ARB,,,,-118.34822963139217,34.129246723957344
341,9143,SUNSET OIL,8906 SUNSET BLVD,W HOLLYWOOD,CALIFORNIA,90069,Service Station or Gas Station,ARB,,,,-118.38588533454043,34.090584996000935
342,11769,CONTINENTAL SERVICES,545 S FIGUEROA ST,LOS ANGELES,CALIFORNIA,90071,Service Station or Gas Station,ARB,,,,-118.25779595312059,34.051654005628016
343,11452,Autobahn Fuels Inc,3167 CAHUENGA BLVD W,LOS ANGELES,CALIFORNIA,90068,Service Station or Gas Station,ARB,,,,-118.3468129203798,34.12800743209755
344,3625,AL'S WESTSIDE #3,12332 W WASHINGTON BLVD,LOS ANGELES,CALIFORNIA,90066,Service Station or Gas Station,ARB,,,,-118.42753496286811,33.9970085361153
345,548,USA #63022,6601 FLORENCE AVE,BELL,CALIFORNIA,90201,Service Station or Gas Station,ARB,,,,-118.14674893221729,33.96240565179954
346,546,Bell Gas,5151 FLORENCE AVE,BELL,CALIFORNIA,90201,Service Station or Gas Station,ARB,,,,-118.17477525607308,33.968968063225695
347,10256,USA #63009,3831 FLORENCE AVE,BELL,CALIFORNIA,90201,Service Station or Gas Station,ARB,,,,-118.19861104406432,33.97150752655126
348,544,BELL 76,4965 FLORENCE AVE,BELL,CALIFORNIA,90201,Service Station or Gas Station,ARB,,,,-118.17849405435697,33.96937113666874
349,7779,LA CIENEGA CHEVRON,1107 N LA CIENEGA BLVD,WEST HOLLYWOOD,CALIFORNIA,90069,Service Station or Gas Station,ARB,,,,-118.37634317779525,34.09080400070428
350,7780,WEST HOLLYWOOD SERVICE CENTER,8380 SANTA MONICA BLVD,WEST HOLLYWOOD,CALIFORNIA,90069,Service Station or Gas Station,ARB,,,,-118.37297898039549,34.09060995488565
351,543,GSE 76 GAGE,4575 GAGE AVE,BELL,CALIFORNIA,90201,Service Station or Gas Station,ARB,,,YES,-118.18527496956406,33.977895839121864
352,10535,PETROLION INC,6168 EASTERN ST,BELL GARDEN,CALIFORNIA,90201,Service Station or Gas Station,ARB,,,,-118.16305499349303,33.978594124919084
353,549,VALERO / CIRCLE-K,8006 EASTERN AVE,BELL GARDENS,CALIFORNIA,90201,Service Station or Gas Station,ARB,,,YES,-118.16529026293512,33.959764951791335
354,7963,VALERO/ CIRCLE-K,6357 EASTERN AVE,BELL GARDENS,CALIFORNIA,90201,Service Station or Gas Station,ARB,,,,-118.16375574343263,33.9759526263129
355,7962,WEBB'S AUTO & TRUCK,5703 GAGE AVE,BELL GARDENS,CALIFORNIA,90201,Service Station or Gas Station,ARB,,,YES,-118.16352193948573,33.975595409300894
356,1418,CIRCLE K,5001 CLARA ST,CUDAHY,CALIFORNIA,90201,Service Station or Gas Station,ARB,,,,-118.17846294770675,33.96476178832604
357,609,"CCOLKER UNION OIL, LLC.",427 N CRESCENT DR,BEVERLY HILLS,CALIFORNIA,90210,Service Station or Gas Station,ARB,,,,-118.40061271870184,34.07196669680573
358,610,AVIS UNION 76,9988 WILSHIRE BLVD,BEVERLY HILLS,CALIFORNIA,90210,Service Station or Gas Station,ARB,,,,-118.41620786769877,34.06707269954561
359,12933,MHFR ENERGY INC,5970 FLORENCE AVE,BELL GARDENS,CALIFORNIA,90201,Service Station or Gas Station,ARB,,,YES,-118.1586399113027,33.96710294934177
360,611,WORLD OIL MARKETING COMPANY #62,391 S ROBERTSON BLVD,BEVERLY HILLS,CALIFORNIA,90211,Service Station or Gas Station,ARB,,,,-118.38384700673386,34.071583573922965
361,612,Beverly Hills Oil Inc,9460 W OLYMPIC BLVD,BEVERLY HILLS,CALIFORNIA,90212,Service Station or Gas Station,ARB,,,,-118.39913514786859,34.05965872097338
362,1419,SOUTH CITY GAS INC. ARCO,8111 S ATLANTIC AVE,CUDAHY,CALIFORNIA,90201,Service Station or Gas Station,ARB,,,YES,-118.18586199843237,33.96072664451922
363,11845,VALLEY ENTERPRISES,6355 E FLORENCE AVE,BELL GARDENS,CALIFORNIA,90201,Service Station or Gas Station,ARB,,,,-118.15104539832632,33.965173783043895
364,11368,Alondra AmPm,282O E ALONDRA BLVD,COMPTON,CALIFORNIA,90220,Service Station or Gas Station,ARB,,,,-118.22583919082585,33.888537592635984
365,1234,DESTINY CHEVRON,101 W COMPTON BLVD,COMPTON,CALIFORNIA,90220,Service Station or Gas Station,ARB,,,,-118.22432376482976,33.896058798275085
366,8721,ARCO # 42976,390 W COMPTON BLVD,COMPTON,CALIFORNIA,90220,Service Station or Gas Station,ARB,,,YES,-118.22848105275826,33.89589091733215
367,1239,ARCO #22,1924 W ALONDRA BLVD,COMPTON,CALIFORNIA,90220,Service Station or Gas Station,ARB,,,,-118.24919354744411,33.888336925109165
368,1236,ANGELS GAS & MART,1238 S WILMINGTON AVE,COMPTON,CALIFORNIA,90220,Service Station or Gas Station,ARB,,,,-118.23673914039887,33.885069621566
369,1240,CIRCLE K MOBIL STORE 2211155,2001 W ALONDRA BLVD,COMPTON,CALIFORNIA,90220,Service Station or Gas Station,ARB,,,,-118.25033852560232,33.88840319525143
370,10999,ANGELS GAS & MART 76,1248 S WILMINGTON AVE,COMPTON,CALIFORNIA,90220,Service Station or Gas Station,ARB,,,,-118.23672830356823,33.884892053125895
371,1244,ULTRAMAX,220 W ALONDRA BLVD,COMPTON,CALIFORNIA,90220,Service Station or Gas Station,ARB,,,,-118.2251713659656,33.888537592635984
372,13377,COMPTON ARCO,2195 S SANTA FE AVE,COMPTON,CALIFORNIA,90221,Service Station or Gas Station,ARB,,,,-118.21469577498985,33.87466536121768
373,1237,USA #63033,1800 E ROSECRANS AVE,COMPTON,CALIFORNIA,90221,Service Station or Gas Station,ARB,,,,-118.204307651177,33.903392212880505
374,1245,OS OIL INC.,4502 E ROSECRANS AVE,COMPTON,CALIFORNIA,90221,Service Station or Gas Station,ARB,,,,-118.19390167042556,33.903538998426185
375,8573,UNITED PACIFIC #124,502 W ROSECRANS AVE,COMPTON,CALIFORNIA,90222,Service Station or Gas Station,ARB,,,,-118.23243074118564,33.90321748629817
376,8017,CHEVRON COMPTON,740 W ROSECRANS AVE,COMPTON,CALIFORNIA,90222,Service Station or Gas Station,ARB,,,,-118.23696393403817,33.90321825701708
377,1248,HM PETROLEUM GROUP INC,106 N LONG BEACH BLVD,COMPTON,CALIFORNIA,90221,Service Station or Gas Station,ARB,,,,-118.20790318208601,33.896180972973696
378,1247,Paramount Oil Inc - Alodnra,828 S LONG BEACH BLVD,COMPTON,CALIFORNIA,90221,Service Station or Gas Station,ARB,,,,-118.20719919368769,33.88937889312158
379,1424,SP SUPER PETROL,11284 VENICE BLVD,CULVER CITY,CALIFORNIA,90230,Service Station or Gas Station,ARB,,,,-118.4193113381476,34.01153488762517
380,1246,R.B. SERVICE,700 E ROSECRANS AVE,COMPTON,CALIFORNIA,90221,Service Station or Gas Station,ARB,,,,-118.2162142011243,33.90330234722567
381,1242,DUCM INC,801 W EL SEGUNDO BLVD,COMPTON,CALIFORNIA,90222,Service Station or Gas Station,ARB,,,,-118.24059674634263,33.91631250561776
382,8016,ROSECRANS VALERO,4351 E ROSECRANS AVE,COMPTON,CALIFORNIA,90221,Service Station or Gas Station,ARB,,,,-118.195915339721,33.90362465795175
383,3642,CIRCLE K MOBIL STORE 2211182,6100 SEPULVEDA BLVD,CULVER CITY,CALIFORNIA,90230,Service Station or Gas Station,ARB,,,,-118.3944986507919,33.98321820505627
384,9163,SHELL #68525,3801 SEPULVEDA BLVD,CULVER CITY,CALIFORNIA,90230,Service Station or Gas Station,ARB,,,,-118.41714757110336,34.01274715665617
385,1426,WINALL OIL #18,10646 VENICE BLVD,CULVER CITY,CALIFORNIA,90232,Service Station or Gas Station,ARB,,,,-118.40632128409979,34.01889487359973
386,11838,Culver Petroleum,6300 W SLAUSON AVE,CULVER CITY,CALIFORNIA,90230,Service Station or Gas Station,ARB,,,,-118.3955280903489,33.98853530725885
387,1421,SMB Corp,10638 CULVER BLVD,CULVER CITY,CALIFORNIA,90232,Service Station or Gas Station,ARB,,,,-118.40209059350593,34.01416594330381
388,1427,JEFFERSON CHEVRON,10649 JEFFERSON BLVD,CULVER CITY,CALIFORNIA,90232,Service Station or Gas Station,ARB,,,,-118.3932097936969,34.005028262044895
389,1420,JIN'S SHELL SERVICE'S,10332 CULVER BLVD,CULVER CITY,CALIFORNIA,90232,Service Station or Gas Station,ARB,,,,-118.3998127717419,34.016983873607025
390,1585,DOWNEY SHELL,8140 TELEGRAPH RD,DOWNEY,CALIFORNIA,90240,Service Station or Gas Station,ARB,,,,-118.1164018943318,33.96756226278842
391,1572,CIRCLE K STORE 2709496,9000 TELEGRAPH RD,DOWNEY,CALIFORNIA,90240,Service Station or Gas Station,ARB,,,,-118.10948207613677,33.96049076673573
392,1573,ALPHA ENERGY INC,9706 TELEGRAPH RD,DOWNEY,CALIFORNIA,90240,Service Station or Gas Station,ARB,,,,-118.09643221267636,33.95158840028468
393,1571,USA #63143,8863 LAKEWOOD BLVD,DOWNEY,CALIFORNIA,90240,Service Station or Gas Station,ARB,,,,-118.11093033266856,33.95971781922211
394,10930,Anthem Oil Downey,11856 OLD RIVER SCHOOL RD,DOWNEY,CALIFORNIA,90241,Service Station or Gas Station,ARB,,,,-118.15352128587847,33.94089973023857
395,1422,"JASPAL, INC",11181 WASHINGTON BLVD,CULVER CITY,CALIFORNIA,90232,Service Station or Gas Station,ARB,,,,-118.41282317205165,34.00765984922282
396,1581,ZYDUS CORP DBA ARCO OF DOWNEY,9522 FIRESTONE BLVD,DOWNEY,CALIFORNIA,90241,Service Station or Gas Station,ARB,,,,-118.11334196725781,33.9301425021749
397,1579,Paramount Oil Inc - Downey,8001 E FIRESTONE BLVD,DOWNEY,CALIFORNIA,90241,Service Station or Gas Station,ARB,,,,-118.13789429908249,33.94272225402897
398,1584,G&M OIL COMPANY #96,7360 FLORENCE AVE,DOWNEY,CALIFORNIA,90240,Service Station or Gas Station,ARB,,,,-118.1411582769328,33.95910463986745
399,1423,CULVER CITY CHEVRON,11197 WASHINGTON PLACE,CULVER CITY,CALIFORNIA,90232,Service Station or Gas Station,ARB,,,,-118.41393788982165,34.00888276532753
400,1577,WFG DOWNEY,11861 PARAMOUNT BLVD,DOWNEY,CALIFORNIA,90241,Service Station or Gas Station,ARB,,,,-118.14336043333715,33.93546938270607
401,1575,DOWNEY SMOG CORP,10801 STUDEBAKER RD,DOWNEY,CALIFORNIA,90241,Service Station or Gas Station,ARB,,,,-118.09813773826582,33.9353850271974
402,1574,Downey Energy Inc,10208 LAKEWOOD BLVD,DOWNEY,CALIFORNIA,90241,Service Station or Gas Station,ARB,,,,-118.11715017703887,33.94727923664767
403,8580,CIRCLE K MOBIL STORE 2211130,5776 WASHINGTON BLVD,CULVER CITY,CALIFORNIA,90232,Service Station or Gas Station,ARB,,,,-118.3705999246467,34.034028749527394
404,9496,USA #63270,11025 PARAMOUNT BLVD,DOWNEY,CALIFORNIA,90241,Service Station or Gas Station,ARB,,,,-118.13697672079888,33.944151292048694
405,8033,G&M OIL COMPANY #142,12555 PARAMOUNT BLVD,DOWNEY,CALIFORNIA,90242,Service Station or Gas Station,ARB,,,,-118.15168498087701,33.92468810497221
406,11802,ARCO #82856,5884 WASHINGTON BLVD,CULVER CITY,CALIFORNIA,90232,Service Station or Gas Station,ARB,,,,-118.37370005051679,34.032714672744156
407,1576,ARCO #42120,10808 LAKEWOOD BLVD,DOWNEY,CALIFORNIA,90241,Service Station or Gas Station,ARB,,,,-118.12186661125499,33.93890729123871
408,1578,UNITED PACIFIC #166,7360 FIRESTONE BLVD,DOWNEY,CALIFORNIA,90241,Service Station or Gas Station,ARB,,,,-118.15069557643953,33.9470163675116
409,1583,DOWNEY GAS N GO INC,12603 PARAMOUNT BLVD,DOWNEY,CALIFORNIA,90242,Service Station or Gas Station,ARB,,,,-118.15218694377226,33.924026463850424
410,3748,CHEVRON STATION# 97608,601 VISTA DEL MAR,EL SEGUNDO,CALIFORNIA,90245,Service Station or Gas Station,ARB,,,,-118.42189924615312,33.907369900800504
411,1586,PACIFIC BAY INC,9002 IMPERIAL HWY,DOWNEY,CALIFORNIA,90242,Service Station or Gas Station,ARB,,,,-118.13707671731652,33.91691137675878
412,1708,EL SEGUNDO GAS INC,232 MAIN ST,EL SEGUNDO,CALIFORNIA,90245,Service Station or Gas Station,ARB,,,,-118.41587014079417,33.91826165934829
413,1582,G&M OIL COMPANY #92,9851 IMPERIAL HWY,DOWNEY,CALIFORNIA,90242,Service Station or Gas Station,ARB,,,,-118.11777663218567,33.91719309028908
414,9128,NABHAN SIMAAN FOODMART,7395 IMPERIAL HWY,DOWNEY,CALIFORNIA,90242,Service Station or Gas Station,ARB,,,,-118.16155492072289,33.92896721056849
415,1587,Dave's ARCO,9093 IMPERIAL HWY,DOWNEY,CALIFORNIA,90242,Service Station or Gas Station,ARB,,,,-118.13439203326557,33.917137469019195
416,1570,ARCO #42119,8010 IMPERIAL HWY,DOWNEY,CALIFORNIA,90242,Service Station or Gas Station,ARB,,,,-118.15180942096784,33.92383694971564
417,1712,BOB'S UNION INC,770 N SEPULVEDA BLVD,EL SEGUNDO,CALIFORNIA,90245,Service Station or Gas Station,ARB,,,,-118.39615088705365,33.926479800902236
418,1707,CHEVRON STATION# 97879,101 S SEPULVEDA BLVD,EL SEGUNDO,CALIFORNIA,90245,Service Station or Gas Station,ARB,,,,-118.39611472081752,33.91628708178358
419,12985,CIRCLE K STORE 2709416,757 N SEPULVEDA BLVD,EL SEGUNDO,CALIFORNIA,90245,Service Station or Gas Station,ARB,,,,-118.39642139143395,33.926219740348984
420,2291,WINALL OIL #5,1342 W EL SEGUNDO BLVD,GARDENA,CALIFORNIA,90247,Service Station or Gas Station,ARB,,,YES,-118.29935948934884,33.916373485048425
421,2296,GARDENA SHELL,854 W EL SEGUNDO BLVD,GARDENA,CALIFORNIA,90247,Service Station or Gas Station,ARB,,,,-118.2905263796885,33.91636674462974
422,2292,CIRCLE K MOBIL STORE 2211118,1403 W REDONDO BEACH BLVD,GARDENA,CALIFORNIA,90247,Service Station or Gas Station,ARB,,,,-118.3003631444434,33.89142589938592
423,2297,Carson Mini Truck Stop,101 W VICTORIA ST,CARSON,CALIFORNIA,90248,Service Station or Gas Station,ARB,,,,-118.27555587910041,33.865618050133094
424,2295,HASSAN 24 CHEVRON,850 W ROSECRANS AVE,GARDENA,CALIFORNIA,90247,Service Station or Gas Station,ARB,,,,-118.2909920792209,33.90185295125288
425,9182,VONS # 1625,1320 W REDONDO BEACH,GARDENA,CALIFORNIA,90247,Hypermart,ARB,,,,-118.29903126468095,33.89171650451322
426,2300,ARAD OIL INC - A&A CHEVRON,17400 S WESTERN AVE,GARDENA,CALIFORNIA,90248,Service Station or Gas Station,ARB,,,,-118.30898331532757,33.87277172263708
427,8740,GASS 4 LESS,545 E ROSECRANS AVE,GARDENA,CALIFORNIA,90248,Service Station or Gas Station,ARB,,,,-118.26588028274871,33.90208678577674
428,2301,UNITED PACIFIC #144,18130 S WESTERN AVE,GARDENA,CALIFORNIA,90248,Service Station or Gas Station,ARB,,,,-118.30905342827297,33.866266763500526
429,13241,CFS 122 ROSECRANS,506 W ROSECRANS AVE,LOS ANGELES,CALIFORNIA,90248,Service Station or Gas Station,ARB,,,,-118.28305659728396,33.901839573837464
430,2298,S & M SERVICE STATION INC,16435 S FIGUEROA ST,GARDENA,CALIFORNIA,90248,Service Station or Gas Station,ARB,,,,-118.2826329149769,33.882145510107364
431,2303,CRENSHAW SHELL,12810 CRENSHAW BLVD,GARDENA,CALIFORNIA,90249,Service Station or Gas Station,ARB,,,,-118.32636456737072,33.91631297326529
432,2289,Gardena Petroleum,1001 W ARTESIA BLVD,GARDENA,CALIFORNIA,90248,Service Station or Gas Station,ARB,,,,-118.29105400473838,33.87293627788718
433,2305,VILLAGE AUTO SPA INC,15407 CRENSHAW BLVD,GARDENA,CALIFORNIA,90249,Service Station or Gas Station,ARB,,,,-118.32661029362997,33.89092871638737
434,2306,UNITED PACIFIC #102,1744 W ROSECRANS AVE,GARDENA,CALIFORNIA,90249,Service Station or Gas Station,ARB,,,,-118.3081663037318,33.90187031626231
435,13453,CFS 125 COMPTON,15914 S AVALON BLVD,COMPTON,CALIFORNIA,90248,Service Station or Gas Station,ARB,,,,-118.26523311801382,33.88748947955605
436,2304,STAR OIL CO,1408 W ROSECRANS AVE,GARDENA,CALIFORNIA,90249,Service Station or Gas Station,ARB,,,,-118.3007552569494,33.90186168726729
437,2294,GARDENA FUEL,2150 MARINE AVE,GARDENA,CALIFORNIA,90249,Service Station or Gas Station,ARB,,,,-118.31695767495657,33.89460848769174
438,8081,G & S PARTNERSHIP,15103 S WESTERN AVE,GARDENA,CALIFORNIA,90249,Service Station or Gas Station,ARB,,,,-118.30919781352804,33.8944677518855
439,2472,USA #63191,11890 S HAWTHORNE BLVD,HAWTHORNE,CALIFORNIA,90250,Service Station or Gas Station,ARB,,,,-118.35232468263789,33.925582292788796
440,2288,GARDENA MOBIL MART,1645 W 190TH ST,GARDENA,CALIFORNIA,90248,Service Station or Gas Station,ARB,,,,-118.30922532738681,33.85840521392968
441,2293,CIRCLE K MOBIL STORE 2211149,15312 S VERMONT AVE,GARDENA,CALIFORNIA,90247,Service Station or Gas Station,ARB,,,,-118.29156792771752,33.89181315645227
442,2475,USA #63066,3101 W EL SEGUNDO BLVD,HAWTHORNE,CALIFORNIA,90250,Service Station or Gas Station,ARB,,,,-118.32715294994853,33.91654238042666
443,11731,ARCO #42115,5038 EL SEGUNDO BLVD,HAWTHORNE,CALIFORNIA,90250,Service Station or Gas Station,ARB,,,,-118.36613219884175,33.916376771171244
444,2482,USA #63254,5230 W ROSECRANS AVE,HAWTHORNE,CALIFORNIA,90250,Service Station or Gas Station,ARB,,,,-118.37125220472531,33.901726622585784
445,2479,WINALL OIL #4,4750 ROSECRANS AVE,HAWTHORNE,CALIFORNIA,90250,Service Station or Gas Station,ARB,,,,-118.36057242267901,33.90174562885784
446,2477,VEER GAS PARTNERS,4009 W ROSECRANS,HAWTHORNE,CALIFORNIA,90250,Service Station or Gas Station,ARB,,,,-118.34408766881072,33.90196157226891
447,2471,HAWTHORNE FUEL INC,11741 HAWTHORNE BLVD,HAWTHORNE,CALIFORNIA,90250,Service Station or Gas Station,ARB,,,YES,-118.35274946121856,33.927929301196514
448,2470,CSTORE CO INC,11402 HAWTHORNE BLVD,HAWTHORNE,CALIFORNIA,90250,Service Station or Gas Station,ARB,,,,-118.35234097205804,33.93038256000736
449,2473,Silver Chevron,12801 INGLEWOOD AVE,HAWTHORNE,CALIFORNIA,90250,Service Station or Gas Station,ARB,,,,-118.3612983023746,33.91642984915836
450,2478,Hawthorne Petroleum,4015 W EL SEGUNDO BLVD,HAWTHORNE,CALIFORNIA,90250,Service Station or Gas Station,ARB,,,,-118.34410298606383,33.91652209082201
451,8828,HAWTHORNE (LOC. NO. 671),14501 HINDRY AVE,HAWTHORNE,CALIFORNIA,90250,Hypermart,ARB,,,,-118.3721779362626,33.90014315478293
452,2660,CALIFORNIA FUEL,8021 CALIFORNIA AVE,HUNTINGTON PARK,CALIFORNIA,90255,Service Station or Gas Station,ARB,,,,-118.20475738774303,33.96354167540824
453,13003,P&J Gas Inc,4773 W EL SEGUNDO BLVD,HAWTHORNE,CALIFORNIA,90250,Service Station or Gas Station,ARB,,,,-118.36063113132148,33.916498015970824
454,2476,UNITED PACIFIC #174,4008 W ROSECRANS AVE,LAWNDALE,CALIFORNIA,90250,Service Station or Gas Station,ARB,,,,-118.34416955837824,33.90185059682777
455,2657,USA #63273,2581 E SLAUSON AVE,HUNTINGTON PARK,CALIFORNIA,90255,Service Station or Gas Station,ARB,,,,-118.22577613486062,33.989263316548985
456,2561,CIRCLE K MOBIL STORE 2211166,931 PACIFIC COAST HWY,HERMOSA BEACH,CALIFORNIA,90254,Service Station or Gas Station,ARB,,,,-118.39228712165314,33.86201313659717
457,2654,FLORENCE SHELL SERVICE,2322 E FLORENCE AVE,HUNTINGTON PARK,CALIFORNIA,90255,Service Station or Gas Station,ARB,,,,-118.2312300005639,33.97471739219405
458,2655,SANTA FE 76,2330 E SLAUSON AVE,HUNTINGTON PARK,CALIFORNIA,90255,Service Station or Gas Station,ARB,,,,-118.23125759626089,33.98915194450679
459,2560,ARCO #42117,1131 PACIFIC COAST HWY,HERMOSA BEACH,CALIFORNIA,90254,Service Station or Gas Station,ARB,,,,-118.39268355809952,33.86340622691608
460,3027,G&M OIL COMPANY #48,15606 INGLEWOOD AVE,LAWNDALE,CALIFORNIA,90260,Service Station or Gas Station,ARB,,,,-118.36123291446725,33.88957227524049
461,2658,NABIL MOBIL MART,3084 E GAGE AVE,HUNTINGTON PARK,CALIFORNIA,90255,Service Station or Gas Station,ARB,,,,-118.21297525050724,33.980783826612516
462,3028,E & F DANDY,15922 INGLEWOOD AVE,LAWNDALE,CALIFORNIA,90260,Service Station or Gas Station,ARB,,,,-118.36128352561404,33.886177813855156
463,3029,USA #63257,16515 HAWTHORNE BLVD,LAWNDALE,CALIFORNIA,90260,Service Station or Gas Station,ARB,,,,-118.35273265738607,33.880861360063896
464,3030,Laguna Petroleum,16518 HAWTHORNE BLVD,LAWNDALE,CALIFORNIA,90260,Service Station or Gas Station,ARB,,,,-118.35229131509195,33.88081309434897
465,2659,JOHN'S SERVICE STATION,6400 SANTA FE AVE,HUNTINGTON PARK,CALIFORNIA,90255,Service Station or Gas Station,ARB,,,YES,-118.2301912800034,33.98162567388592
466,3032,USA #63256,4015 REDONDO BEACH BLVD,LAWNDALE,CALIFORNIA,90260,Service Station or Gas Station,ARB,,,,-118.34409182907451,33.877272775518406
467,3031,UNITED PACIFIC #104,16926 HAWTHORNE BLVD,LAWNDALE,CALIFORNIA,90260,Service Station or Gas Station,ARB,,,,-118.35229608419675,33.87718819697792
468,3684,LYNWOOD 76,11000 ATLANTIC AVE,LYNWOOD,CALIFORNIA,90262,Service Station or Gas Station,ARB,,,,-118.1834240370895,33.93070590855098
469,3687,Lynwood Petroleum Inc,11401 S ATLANTIC AVE,LYNWOOD,CALIFORNIA,90262,Service Station or Gas Station,ARB,,,,-118.1876031092959,33.921174080519606
470,3025,G&M OIL COMPANY #186,14305 HAWTHORNE RD,LAWNDALE,CALIFORNIA,90260,Service Station or Gas Station,ARB,,,,-118.35276557886823,33.90177675259526
471,3685,LONG BEACH STATION LP,11151 LONG BEACH BLVD,LYNWOOD,CALIFORNIA,90262,Service Station or Gas Station,ARB,,,,-118.21179575097295,33.930780382308946
472,3690,G&M OIL COMPANY #57,4346 E IMPERIAL HWY,LYNWOOD,CALIFORNIA,90262,Service Station or Gas Station,ARB,,,,-118.18468426786451,33.93075938044119
473,8579,UNITED PACIFIC #133,11515 ATLANTIC BLVD,LYNWOOD,CALIFORNIA,90262,Service Station or Gas Station,ARB,,,,-118.18806255404348,33.92004746651756
474,3688,M&A enterprise,12131 LONG BEACH BLVD,LYNWOOD,CALIFORNIA,90262,Service Station or Gas Station,ARB,,,YES,-118.2095453090686,33.91773226533199
475,8173,USA #63213,29145 HEATHERCLIFF RD,MALIBU,CALIFORNIA,90265,Service Station or Gas Station,ARB,,,,-118.80902514899128,34.021433331483294
476,3686,AHMED MANSWER,11175 LONG BEACH BLVD,LYNWOOD,CALIFORNIA,90262,Service Station or Gas Station,ARB,,,,-118.21161720496991,33.93017789949066
477,3744,CIRCLE K STORE 2709422,1865 MANHATTAN BEACH BLVD,MANHATTAN BEACH,CALIFORNIA,90266,Service Station or Gas Station,ARB,,,,-118.37945659834322,33.887469067643515
478,3737,MMK ENTERPRISE INC.,21216 PACIFIC COAST HWY,MALIBU,CALIFORNIA,90265,Service Station or Gas Station,ARB,,,,-118.63679568986902,34.0369742729445
479,12622,MALIBU CHEVRON,23670 PACIFIC COAST HWY,MALIBU,CALIFORNIA,90265,Service Station or Gas Station,ARB,,,,-118.69053180000243,34.03450327860359
480,3741,trancas oil,30811 PACIFIC COAST HWY,MALIBU,CALIFORNIA,90265,Service Station or Gas Station,ARB,,,,-118.84359480245807,34.03131822345739
481,9813,ARCO #69616,18541 PACIFIC COAST HWY,MALIBU,CALIFORNIA,90265,Service Station or Gas Station,ARB,,,,-118.57807040992131,34.040130045265556
482,3740,PCH UNION 76,26101 PACIFIC COAST HWY,MALIBU,CALIFORNIA,90265,Service Station or Gas Station,ARB,,,,-118.74339612443146,34.033152918672464
483,3738,"Malibu Oil, Inc.",23387 PACIFIC COAST HWY,MALIBU,CALIFORNIA,90265,Service Station or Gas Station,ARB,,,,-118.68487787291531,34.03454403048284
484,3828,76 PHENOMENA GAS,5700 ATLANTIC BLVD,MAYWOOD,CALIFORNIA,90270,Service Station or Gas Station,ARB,,,YES,-118.18520328550304,33.98905919292762
485,12912,MAYWOOD CAR WASH,4535 SLAUSON AVE,MAYWOOD,CALIFORNIA,90270,Service Station or Gas Station,ARB,,,YES,-118.18479571544975,33.987157250906655
486,3827,MAYWOOD SHELL,5645 ATLANTIC BLVD,MAYWOOD,CALIFORNIA,90270,Service Station or Gas Station,ARB,,,YES,-118.18525177874639,33.98965149182313
487,3747,CHEVRON STATION# 202019,3633 N SEPULVEDA BLVD,MANHATTAN BEACH,CALIFORNIA,90266,Service Station or Gas Station,ARB,,,,-118.39632553089838,33.901353335588155
488,3746,CHEVRON STATION# 99778,2301 N AVIATION BLVD,MANHATTAN BEACH,CALIFORNIA,90266,Service Station or Gas Station,ARB,,,,-118.37879101998945,33.89474459288887
489,3745,GSE 76 HIGHLAND,2121 HIGHLAND AVE,MANHATTAN BEACH,CALIFORNIA,90266,Service Station or Gas Station,ARB,,,,-118.41345101215434,33.89144990858664
490,4735,PACIFIC WEST GENERAL STORE,17299 PACIFIC COAST HWY,PACIFIC PALISADES,CALIFORNIA,90272,Service Station or Gas Station,ARB,,,,-118.55454387270142,34.03864782673602
491,4736,UNITED PACIFIC #186,17301 PACIFIC COAST HWY,PACIFIC PALISADES,CALIFORNIA,90272,Service Station or Gas Station,ARB,,,,-118.55578272029621,34.03864380766585
492,4737,PALISADES GAS N WASH SITE #2004,890 ALMA REAL DR,PACIFIC PALISADES,CALIFORNIA,90272,Service Station or Gas Station,ARB,,,,-118.52503010165768,34.04524165417914
493,12687,ARCO AM PM,1002 MANHATTAN BCH BLVD,MANHATTAN BEACH,CALIFORNIA,90266,Service Station or Gas Station,ARB,,,,-118.39812429280165,33.88726056072652
494,4734,JINS SANTA MONICA SHELL,15401 W SUNSET BLVD,PACIFIC PALISADES,CALIFORNIA,90272,Service Station or Gas Station,ARB,,,,-118.52688646244016,34.04812768744307
495,4733,VILLAGE GENERAL STORE INC.,15400 W SUNSET BLVD,PACIFIC PALISADES,CALIFORNIA,90272,Service Station or Gas Station,ARB,,,,-118.52691656364833,34.04802091543311
496,5526,ARCO #42045,27301 HAWTHORNE BLVD,ROLLING HILLS ESTATES,CALIFORNIA,90274,Service Station or Gas Station,ARB,,,,-118.37501079081521,33.77672607964502
497,5192,MULTIPLEX CAR WASH,28103 HAWTHORNE BLVD,RANCHO PALOS VERDES,CALIFORNIA,90275,Service Station or Gas Station,ARB,,,,-118.39132208794389,33.77911289204653
498,5283,CHEVRON STATION# 93777,1630 S ELENA AVE,REDONDO BEACH,CALIFORNIA,90277,Service Station or Gas Station,ARB,,,,-118.38517711393249,33.819580283303665
499,5281,REDONDO SHELL,1200 BERYL STREET,REDONDO BEACH,CALIFORNIA,90277,Service Station or Gas Station,ARB,,,,-118.38186551428194,33.85414717944901
500,5193,SHIMO INVESTMENTS GROUP INC,27774 HAWTHORNE BLVD,RANCHO PALOS VERDES,CALIFORNIA,90275,Service Station or Gas Station,ARB,,,,-118.38339222047443,33.77883107059767
501,5291,ARCO #42116,2730 MARINE,REDONDO BEACH,CALIFORNIA,90278,Service Station or Gas Station,ARB,,,,-118.36251117395132,33.89458935821248
502,5286,REDONDO BEACH FUEL INC,247 S PACIFIC COAST HWY,REDONDO BEACH,CALIFORNIA,90277,Service Station or Gas Station,ARB,,,,-118.38556332778516,33.839305406019875
503,5288,SOUTH BAR SHELL,1700 ARTESIA BLVD,REDONDO BEACH,CALIFORNIA,90278,Service Station or Gas Station,ARB,,,,-118.38148253618994,33.872729238663645
504,5284,USA #63260,1890 PACIFIC COAST HWY,REDONDO BEACH,CALIFORNIA,90277,Service Station or Gas Station,ARB,,,,-118.37730335246758,33.81611322774345
505,5289,UNITED PACIFIC #108,2118 ARTESIA BLVD,REDONDO BEACH,CALIFORNIA,90278,Service Station or Gas Station,ARB,,,,-118.37445539470049,33.87274734201637
506,6999,UNITED PACIFIC #5626,8440 LONG BEACH BLVD,LOS ANGELES,CALIFORNIA,90280,Service Station or Gas Station,ARB,,,YES,-118.2236198699609,33.96125960524684
507,7003,MOBIL MARK,9859 ATLANTIC AVE,SOUTH GATE,CALIFORNIA,90280,Service Station or Gas Station,ARB,,,,-118.18142309499963,33.94226775555264
508,13122,G&M OIL COMPANY #11,3705 INGLEWOOD AVE,REDONDO BEACH,CALIFORNIA,90278,Service Station or Gas Station,ARB,,,,-118.3613621416493,33.889693101855336
509,7000,FLORENCE CORNER OIL,8901 S ATLANTIC AVE,SOUTH GATE,CALIFORNIA,90280,Service Station or Gas Station,ARB,,,,-118.18319399500669,33.95180445880898
510,6990,SHELL,13745 PARAMOUNT BLVD,SOUTH GATE,CALIFORNIA,90280,Service Station or Gas Station,ARB,,,,-118.16035899597077,33.91091919576447
511,7001,SOUTH GATE AM/PM,8904 LONG BEACH BLVD,SOUTH GATE,CALIFORNIA,90280,Service Station or Gas Station,ARB,,,,-118.22018806063028,33.95555957081769
512,12325,G&M OIL COMPANY #42,5651 E IMPERIAL HWY,SOUTH GATE,CALIFORNIA,90280,Service Station or Gas Station,ARB,,,,-118.1709243060118,33.93017644438754
513,6993,G&M OIL COMPANY #116,3250 FIRESTONE BLVD,SOUTH GATE,CALIFORNIA,90280,Service Station or Gas Station,ARB,,,YES,-118.21219790980548,33.95475880187742
514,6992,CENO 76,3225 FIRESTONE BLVD,SOUTH GATE,CALIFORNIA,90280,Service Station or Gas Station,ARB,,,YES,-118.21283124206802,33.95492496331658
515,6995,"JSK INTERNATIONAL,INC DBA) APEX",4200 FIRESTONE BLVD,SOUTH GATE,CALIFORNIA,90280,Service Station or Gas Station,ARB,,,,-118.1964961156031,33.9531932809453
516,6996,JEMD INC,4204 TWEEDY BLVD,SOUTH GATE,CALIFORNIA,90280,Service Station or Gas Station,ARB,,,,-118.19764251648878,33.943285071349194
517,7002,USA #63272,9853 LONG BEACH BLVD,SOUTH GATE,CALIFORNIA,90280,Service Station or Gas Station,ARB,,,YES,-118.21637818080825,33.94571321749122
518,6998,"Firestonepetrol, Inc.",5731 FIRESTONE BLVD,SOUTH GATE,CALIFORNIA,90280,Service Station or Gas Station,ARB,,,,-118.16461093484666,33.949240884659275
519,6991,"E-ENERGY 76, INC",2702 FIRESTONE BLVD,SOUTH GATE,CALIFORNIA,90280,Service Station or Gas Station,ARB,,,,-118.22463960403432,33.956044465479835
520,9993,CHEVRON STATION# 95243,2400 LINCOLN BLVD,VENICE,CALIFORNIA,90291,Service Station or Gas Station,ARB,,,,-118.4525713844617,33.9940451656521
521,7617,YOSSIS 76,300 S LINCOLN BLVD,VENICE,CALIFORNIA,90291,Service Station or Gas Station,ARB,,,,-118.46779269247858,34.00140180165198
522,7616,VENICE CHEVRON,251 LINCOLN BLVD,VENICE,CALIFORNIA,90291,Service Station or Gas Station,ARB,,,,-118.46832204152885,34.00154351502144
523,3782,MARINA CHEVRON,4680 LINCOLN BLVD,MARINA,CALIFORNIA,90292,Service Station or Gas Station,ARB,,,,-118.4396456562219,33.981251814020126
524,5195,WP MICHAELIS CHEVRON,29421 S WESTERN AVE,RANCHO PALOS VERDES,CALIFORNIA,90275,Service Station or Gas Station,ARB,,,,-118.30924240910973,33.751018878018996
525,3780,USA #68160,4395 GLENCOE AVE,MARINA DEL REY,CALIFORNIA,90292,Service Station or Gas Station,ARB,,,,-118.43745884854691,33.985537044898884
526,3781,VILLA MARINA INC,4300 LINCOLN BLVD,MARINA DEL REY,CALIFORNIA,90292,Service Station or Gas Station,ARB,,,,-118.44338123765384,33.98563959998778
527,3783,MARINA SHELL SERVICE,4770 LINCOLN BLVD,MARINA DEL REY,CALIFORNIA,90292,Service Station or Gas Station,ARB,,,,-118.43718658329404,33.97915567059789
528,2694,VONS # 2502,510 E MANCHESTER BLVD,INGLEWOOD,CALIFORNIA,90301,Hypermart,ARB,,,YES,-118.34853079725835,33.96151464938179
529,9162,SHELL #68544,804 W MANCHESTER BLVD,INGLEWOOD,CALIFORNIA,90301,Service Station or Gas Station,ARB,,,,-118.37019426025674,33.961522350276496
530,5018,ARCO AMPM,8007 W MANCHESTER AVE,PLAYA DEL REY,CALIFORNIA,90293,Service Station or Gas Station,ARB,,,,-118.43653937808968,33.95937503363115
531,5017,CIRCLE K MOBIL STORE 2211323,449 W MANCHESTER AVE,PLAYA DEL REY,CALIFORNIA,90293,Service Station or Gas Station,ARB,,,,-118.44250842312509,33.956511928582906
532,2696,MANCHESTER 76,633 W MANCHESTER BLVD,INGLEWOOD,CALIFORNIA,90301,Service Station or Gas Station,ARB,,,,-118.36695427182207,33.96171987916928
533,2697,MOBIL LA CIENEGA,8307 S LA CIENEGA BLVD,INGLEWOOD,CALIFORNIA,90301,Service Station or Gas Station,ARB,,,,-118.37071278776477,33.96337738276018
534,9084,UNITED PACIFIC #181,811 WASHINGTON BLVD,VENICE,CALIFORNIA,90292,Service Station or Gas Station,ARB,,,,-118.45274535201624,33.98790313332324
535,2689,Arco Manchester,1110 W MANCHESTER BLVD,INGLEWOOD,CALIFORNIA,90301,Service Station or Gas Station,ARB,,,,-118.37553546249141,33.95984120800556
536,2691,WOWSJ CORPORATION,145 E MANCHESTER BLVD,INGLEWOOD,CALIFORNIA,90301,Service Station or Gas Station,ARB,,,YES,-118.3542777960833,33.96180302149243
537,2692,UNITED PACIFIC #5615,400 W ARBOR VITAE,INGLEWOOD,CALIFORNIA,90301,Service Station or Gas Station,ARB,,,,-118.36160060498376,33.95264395795254
538,10770,CFS 111 INGLEWOOD,916 W SPRUCE ST,INGLEWOOD,CALIFORNIA,90301,Service Station or Gas Station,ARB,,,,-118.3721335367332,33.95533252437669
539,2695,SIMON'S MARKET,501 E MANCHESTER BLVD,INGLEWOOD,CALIFORNIA,90301,Service Station or Gas Station,ARB,,,YES,-118.34879378690358,33.96180257902595
540,2699,PRENA LUCKY 777 MART INC,1235 CENTINELA AVE,INGLEWOOD,CALIFORNIA,90302,Service Station or Gas Station,ARB,,,YES,-118.3601557182117,33.97642139882869
541,2698,METRO GAS,1007 N LA BREA AVE,INGLEWOOD,CALIFORNIA,90302,Service Station or Gas Station,ARB,,,,-118.35767401834114,33.97646089615357
542,2700,ACE,3101 W IMPERIAL HWY,INGLEWOOD,CALIFORNIA,90303,Service Station or Gas Station,ARB,,,,-118.32762023048915,33.93109909394822
543,2703,MOBIL MART,3950 W IMPERIAL HWY,INGLEWOOD,CALIFORNIA,90303,Service Station or Gas Station,ARB,,,,-118.34273716858527,33.93090141846583
544,2709,7-ELEVEN INC #33404,3311 W CENTURY BLVD,INGLEWOOD,CALIFORNIA,90303,Service Station or Gas Station,ARB,,,,-118.3296651934937,33.945539845287776
545,2701,INGLEWOOD (LOC. NO. 769),3560 W CENTRUY BLVD,INGLEWOOD,CALIFORNIA,90303,Hypermart,ARB,,,YES,-118.33421692497097,33.94536931853939
546,8901,CULVER CITY (LOC. NO. 479),13463 WASHINGTON BLVD,CULVER CITY,CALIFORNIA,90292,Hypermart,ARB,,,,-118.44554008001055,33.99164506756604
547,2710,JF OIL CORP,9830 S CRENSHAW BLVD,INGLEWOOD,CALIFORNIA,90301,Service Station or Gas Station,ARB,,,,-118.32634166703417,33.946058597626354
548,2693,UNITED PACIFIC #157,4520 W CENTURY BLVD,INGLEWOOD,CALIFORNIA,90304,Service Station or Gas Station,ARB,,,YES,-118.35540419244937,33.94539765527773
549,2704,USA #63251,4130 W CENTURY BLVD,INGLEWOOD,CALIFORNIA,90304,Service Station or Gas Station,ARB,,,YES,-118.34715514929059,33.945394613770596
550,2708,PCH OIL INC,3100 W MANCHESTER BLVD,INGLEWOOD,CALIFORNIA,90305,Service Station or Gas Station,ARB,,,,-118.326600840856,33.95987365374629
551,2707,CHEVRON STATION# 97240,5156 W CENTURY BLVD,INGLEWOOD,CALIFORNIA,90304,Service Station or Gas Station,ARB,,,YES,-118.36946280656315,33.94527344361483
552,2705,UNITED PACIFIC #135,4558 W IMPERIAL HWY,HAWTHORNE,CALIFORNIA,90304,Service Station or Gas Station,ARB,,,YES,-118.35623069638942,33.93090772541145
553,6744,WILSHIRE CHEVRON,432 WILSHIRE BLVD,SANTA MONICA,CALIFORNIA,90401,Service Station or Gas Station,ARB,,,,-118.49770754766507,34.019528604261836
554,6745,OSKOS SERVICE CENTER,731 SANTA MONICA BLVD,SANTA MONICA,CALIFORNIA,90401,Service Station or Gas Station,ARB,,,,-118.49179955580475,34.019212299208455
555,9305,PACIFIC CHEVRON,14791 PACIFIC COAST HWY,SANTA MONICA,CALIFORNIA,90402,Service Station or Gas Station,ARB,,,,-118.51822510980077,34.02754587953893
556,2706,KIM SHELL STATION,4755 W IMPERIAL HWY,LENNOX,CALIFORNIA,90304,Service Station or Gas Station,ARB,,,YES,-118.3606407738525,33.93098663012907
557,6746,APLUS VALERO,2601 WILSHIRE BLVD,SANTA MONICA,CALIFORNIA,90403,Service Station or Gas Station,ARB,,,,-118.47747519202635,34.036069006379705
558,6751,UNITED PACIFIC #8,1776 CLOVERFIELD BLVD,SANTA MONICA,CALIFORNIA,90404,Service Station or Gas Station,ARB,,,,-118.47064894559226,34.02557093325215
559,6747,SANTA MONICA CHEVRON,1330 SANTA MONICA BLVD,SANTA MONICA,CALIFORNIA,90404,Service Station or Gas Station,ARB,,,,-118.4860443092973,34.02371414529183
560,6754,"Santa Monica General Store, Inc.",1819 CLOVERFIELD BLVD,SANTA MONICA,CALIFORNIA,90404,Service Station or Gas Station,ARB,,,,-118.47003273911946,34.02527501582949
561,6753,SANTA MONICA SHELL,1802 CLOVERFIELD BLVD,SANTA MONICA,CALIFORNIA,90404,Service Station or Gas Station,ARB,,,,-118.47033436813643,34.02537383783256
562,6752,WORLD OIL MARKETING COMPANY #16,1801 LINCOLN BLVD,SANTA MONICA,CALIFORNIA,90404,Service Station or Gas Station,ARB,,,,-118.4846353252599,34.013811192232865
563,6750,LINCOLN CHEVRON,1732 LINCOLN BLVD,SANTA MONICA,CALIFORNIA,90404,Service Station or Gas Station,ARB,,,,-118.48536727897655,34.01421946016021
564,6759,USA #63248,2555 LINCOLN BLVD,SANTA MONICA,CALIFORNIA,90405,Service Station or Gas Station,ARB,,,,-118.47682732851828,34.00739644139279
565,6757,LINCOLN 76,2120 LINCOLN BLVD,SANTA MONICA,CALIFORNIA,90405,Service Station or Gas Station,ARB,,,,-118.48115607219482,34.01074443840532
566,7314,ARCO #42008,1210 CRENSHAW BLVD,TORRANCE,CALIFORNIA,90501,Service Station or Gas Station,ARB,,,,-118.32861365759409,33.836114491790504
567,6756,POULDAR OIL,1944 PICO BLVD,SANTA MONICA,CALIFORNIA,90405,Service Station or Gas Station,ARB,,,,-118.46975564270858,34.019279106245925
568,9615,SUPERCHARGED,1348 PICO BLVD,SANTA MONICA,CALIFORNIA,90405,Service Station or Gas Station,ARB,,,,-118.47643327527526,34.01571626929062
569,6749,LINCOLN CAR WASH,1624 LINCOLN BLVD,SANTA MONICA,CALIFORNIA,90404,Service Station or Gas Station,ARB,,,,-118.48779574617659,34.016368377598766
570,6760,ARCO AMPM,332 PICO BLVD,SANTA MONICA,CALIFORNIA,90405,Service Station or Gas Station,ARB,,,,-118.48780062859598,34.0091840256225
571,8461,Central Mobil,1640 CRENSHAW BLVD,TORRANCE,CALIFORNIA,90501,Service Station or Gas Station,ARB,,,,-118.32854981022543,33.83222521712033
572,6755,JINS SANTA MONICA SHELL,1866 LINCOLN BLVD,SANTA MONICA,CALIFORNIA,90404,Service Station or Gas Station,ARB,,,,-118.48362539379673,34.01279530006322
573,7319,TORRANCE CAR WASH,2476 SEPULVEDA BLVD,TORRANCE,CALIFORNIA,90501,Service Station or Gas Station,ARB,,,,-118.32750138687938,33.82154762582245
574,7320,CABRILLO CHEVRON,2761 CABRILLO AVE,TORRANCE,CALIFORNIA,90501,Service Station or Gas Station,ARB,,,,-118.31578878922112,33.81994100677222
575,7316,CRENSHAW CARSON CHEVRON INC,1700 CRENSHAW BLVD,TORRANCE,CALIFORNIA,90501,Service Station or Gas Station,ARB,,,,-118.32853685998795,33.831188311391685
576,7325,ALPINE SHELL,701 W TORRANCE BLVD,TORRANCE,CALIFORNIA,90502,Service Station or Gas Station,ARB,,,,-118.28688510566298,33.84210508458224
577,7315,SOUTH CITY ARCO,1605 W CARSON ST,TORRANCE,CALIFORNIA,90501,Service Station or Gas Station,ARB,,,,-118.30664100407897,33.83152731623284
578,8467,SHELL #68624,911 W CARSON,TORRANCE,CALIFORNIA,90502,Service Station or Gas Station,ARB,,,,-118.29075053301057,33.83164893784838
579,7322,SHELL #68626,19008 NORMANDIE AVE,TORRANCE,CALIFORNIA,90502,Service Station or Gas Station,ARB,,,,-118.2991683825147,33.85810373330084
580,7317,UNITED PACIFIC #172,21190 HAWTHORNE BLVD,TORRANCE,CALIFORNIA,90503,Service Station or Gas Station,ARB,,,,-118.35349789591103,33.83781794354342
581,7323,CIRCLE K MOBIL STORE 2211184,20802 S VERMONT AVE,TORRANCE,CALIFORNIA,90502,Service Station or Gas Station,ARB,,,,-118.28991972851252,33.84193056574321
582,7324,HARBOR FUEL,21700 S VERMONT AVE,TORRANCE,CALIFORNIA,90502,Service Station or Gas Station,ARB,,,,-118.29021874230095,33.831546849507724
583,7332,USA #63259,4925 TORRANCE BLVD,TORRANCE,CALIFORNIA,90503,Service Station or Gas Station,ARB,,,,-118.3660195731446,33.83765368776772
584,7331,CSC TEAM,4530 TORRANCE BLVD,TORRANCE,CALIFORNIA,90503,Service Station or Gas Station,ARB,,,,-118.36182916228584,33.83753242408225
585,7333,WEST TORRANCE 76,5404 W 190TH ST,TORRANCE,CALIFORNIA,90503,Service Station or Gas Station,ARB,,,,-118.3700089315668,33.858196069393315
586,8462,CIRCLE K MOBIL STORE 2211175,20306 ANZA AVE,TORRANCE,CALIFORNIA,90503,Service Station or Gas Station,ARB,,,,-118.36234225519077,33.84840264566574
587,7329,7-ELEVEN INC #37117,3401 TORRANCE BLVD,TORRANCE,CALIFORNIA,90503,Service Station or Gas Station,ARB,,,,-118.34508086029331,33.8376879861119
588,7327,76 Adams,2504 TORRANCE BLVD,TORRANCE,CALIFORNIA,90503,Service Station or Gas Station,ARB,,,,-118.3288707099152,33.83623712424413
589,9076,G&M OIL COMPANY #91,3962 ARTESIA BLVD,TORRANCE,CALIFORNIA,90504,Service Station or Gas Station,ARB,,,,-118.34342595124647,33.87270586708231
590,7341,UNITED PACIFIC #53,3101 ARTESIA BLVD,TORRANCE,CALIFORNIA,90504,Service Station or Gas Station,ARB,,,,-118.32655965010761,33.87297319235918
591,7340,ARCO #42006,3015 W 182ND ST,TORRANCE,CALIFORNIA,90504,Service Station or Gas Station,ARB,,,,-118.3259143056006,33.86564190015373
592,7328,WFG CARSON,3328 W CARSON ST,TORRANCE,CALIFORNIA,90503,Service Station or Gas Station,ARB,,,,-118.34414634327896,33.831059713735016
593,7337,SHELL #68627,18910 CRENSHAW,TORRANCE,CALIFORNIA,90504,Service Station or Gas Station,ARB,,,,-118.3274070929628,33.8589847010833
594,7318,ARCO #63261,22620 WESTERN AVE,TORRANCE,CALIFORNIA,90501,Service Station or Gas Station,ARB,,,YES,-118.30874891153287,33.820967923730855
595,7345,HILLSIDE CHEVRON,24505 HAWTHORNE BLVD,TORRANCE,CALIFORNIA,90505,Service Station or Gas Station,ARB,,,,-118.35126385943943,33.79924408114959
596,7335,P & THY INVESTMENT CORPORATION,1800 ARTESIA BLVD,TORRANCE,CALIFORNIA,90504,Service Station or Gas Station,ARB,,,,-118.30926966306438,33.87275210482596
597,8465,MADRONA CAR WASH,3405 SEPULVEDA BLVD,TORRANCE,CALIFORNIA,90505,Service Station or Gas Station,ARB,,,,-118.34693608972863,33.82526078625641
598,7336,ARCO #42090,18180 PRAIRIE AVE,TORRANCE,CALIFORNIA,90504,Service Station or Gas Station,ARB,,,,-118.34373846026156,33.86574238410391
599,7347,TORRANCE (LOC. 476),2751 SKYPARK DR,TORRANCE,CALIFORNIA,90505,Hypermart,ARB,,,,-118.33666344066512,33.805025295581196
600,7346,COUNTRY HILLS INC 76,25905 ROLLING HILLS RD,TORRANCE,CALIFORNIA,90505,Service Station or Gas Station,ARB,,,,-118.3406361094687,33.7875943407065
601,7330,"REDONDO SERVICE, INC.",4000 REDONDO BEACH BLVD,TORRANCE,CALIFORNIA,90504,Service Station or Gas Station,ARB,,,,-118.34395577783678,33.877199575200365
602,7349,SEPULVEDA ARCO,3900 SEPULVEDA BLVD,TORRANCE,CALIFORNIA,90505,Service Station or Gas Station,ARB,,,,-118.35458754328027,33.82567309303904
603,9267,CIRCLE K MOBIL STORE 2211206,3006 SEPULVEDA BLVD,TORRANCE,CALIFORNIA,90505,Service Station or Gas Station,ARB,,,,-118.34011594519453,33.824070840197344
604,8463,SHELL #68625,23140 HAWTHORNE BLVD,TORRANCE,CALIFORNIA,90505,Service Station or Gas Station,ARB,,,,-118.35093556462445,33.8166582960437
605,7352,RAFI'S CHEVRON #1,5230 SEPULVEDA BLVD,TORRANCE,CALIFORNIA,90505,Service Station or Gas Station,ARB,,,,-118.36879318485742,33.8268787844285
606,7350,CIRCLE K MOBIL STORE 2211115,4202 PACIFIC COAST HWY,TORRANCE,CALIFORNIA,90505,Service Station or Gas Station,ARB,,,,-118.3581004408825,33.80763650052428
607,7351,AESOS OIL INC,4205 PACIFIC COAST HWY,TORRANCE,CALIFORNIA,90505,Service Station or Gas Station,ARB,,,,-118.35808099484186,33.80787588926109
608,7326,TORRANCE FUEL,24650 CRENSHAW BLVD,TORRANCE,CALIFORNIA,90505,Service Station or Gas Station,ARB,,,,-118.32805853667196,33.80146491557363
609,13462,TORRANCE (LOC NO 1202),2620 LOMITA BLVD,TORRANCE,CALIFORNIA,90505,Hypermart,ARB,,,,-118.33164093208319,33.80742379377329
610,7809,PELLISSIER SHELL,2600 PELLISSIER PLACE,CITY OF INDUSTRY,CALIFORNIA,90601,Service Station or Gas Station,ARB,,,,-118.03552162872008,34.02703428850189
611,7344,LINGLEY CHEVRON,23420 CRENSHAW BLVD,TORRANCE,CALIFORNIA,90505,Service Station or Gas Station,ARB,,,,-118.32802275354712,33.81332893388347
612,7808,VALLEJO AMPM,12525 HADLEY ST,WHITTIER,CALIFORNIA,90601,Service Station or Gas Station,ARB,,,,-118.04290126218334,33.98280127755708
613,7810,SONU & TONY CORP INC,13010 E LAMBERT ROAD,WHITTIER,CALIFORNIA,90602,Service Station or Gas Station,ARB,,,,-118.04175339270479,33.960814154849565
614,13086,REV GROUP INC,10808 E BEVERLY BLVD,WHITTIER,CALIFORNIA,90601,Service Station or Gas Station,ARB,,,,-118.0552475815105,33.99833531762094
615,7813,PAINTER 76,8803 PAINTER AVE,WHITTIER,CALIFORNIA,90602,Service Station or Gas Station,ARB,,,,-118.03805392894554,33.95822679453113
616,12506,G&M OIL COMPANY #23,12911 WHITTIER BLVD,WHITTIER,CALIFORNIA,90602,Service Station or Gas Station,ARB,,,YES,-118.03795652157605,33.96622313269163
617,7812,WHITWOOD CAR WASH,16010 WHITTIER BLVD,WHITTIER,CALIFORNIA,90603,Other,ARB,,,,-117.98884828671888,33.94252605253544
618,8731,ARCO #42005,15306 E WHITTIER BLVD,WHITTIER,CALIFORNIA,90603,Service Station or Gas Station,ARB,,,,-118.0005926655189,33.94685239232421
619,11076,7-ELEVEN INC #33590,14968 MULBERRY DR,WHITTIER,CALIFORNIA,90604,Service Station or Gas Station,ARB,,,,-118.0125749599663,33.93507740779631
620,12531,7-ELEVEN INC #33578,11807 VALLEY VIEW AVE,WHITTIER,CALIFORNIA,90604,Service Station or Gas Station,ARB,,,,-118.02927710605343,33.92264344413984
621,7814,HANNAS MOBIL,14206 MULBERRY DR,WHITTIER,CALIFORNIA,90604,Service Station or Gas Station,ARB,,,,-118.02755702853386,33.942742066093636
622,11075,FRIENDLY HILLS CHEVRON,14941 WHITTIER BLVD,WHITTIER,CALIFORNIA,90605,Service Station or Gas Station,ARB,,,,-118.0077564562953,33.949324188860516
623,7815,UNITED PACIFIC #126,14400 TELEGRAPH RD,WHITTIER,CALIFORNIA,90604,Service Station or Gas Station,ARB,,,,-118.02454400200396,33.92494574365135
624,7816,CHEVRON,15735 LEFFINGWELL RD,WHITTIER,CALIFORNIA,90604,Service Station or Gas Station,ARB,,,,-117.99332252361539,33.93129418747694
625,7818,MJM Vallejo Mini-Mart,13411 IMPERIAL HWY,WHITTIER,CALIFORNIA,90605,Service Station or Gas Station,ARB,,,,-118.04639774086293,33.91712566811524
626,8464,ARCO GAS STATION 8464,23510 CRENSHAW BLVD,TORRANCE,CALIFORNIA,90505,Service Station or Gas Station,ARB,,,,-118.32801068104793,33.81257457535658
627,11045,SHAHKOT MINI MART,14000 E LAMBERT RD,WHITTIER,CALIFORNIA,90605,Service Station or Gas Station,ARB,,,,-118.02888924104548,33.951863242994456
628,7819,UNITED PACIFIC #5642,13709 E WHITTIER BLVD,WHITTIER,CALIFORNIA,90605,Service Station or Gas Station,ARB,,,,-118.02794240511774,33.960467191907526
629,7817,7-ELEVEN INC #33149,13019 IMPERIAL HWY,WHITTIER,CALIFORNIA,90605,Service Station or Gas Station,ARB,,,,-118.05475577735712,33.91715490057842
630,11442,7-ELEVEN INC #33601,31186 HAWTHORNE BLVD,RANCHO PALOS VERDES,CALIFORNIA,90274,Service Station or Gas Station,ARB,,,,-118.40732729272027,33.74934787470491
631,8712,NIMEH INC,15750 LEFFINGWELL RD,WHITTIER,CALIFORNIA,90604,Service Station or Gas Station,ARB,,,,-117.9929287266792,33.931165488196974
632,8688,UNITED PACIFIC #5643,13444 TELEGRAPH RD,WHITTIER,CALIFORNIA,90605,Service Station or Gas Station,ARB,,,,-118.04519981332064,33.93927403926573
633,8593,G&M OIL COMPANY #16,12559 LAMBERT RD,WHITTIER,CALIFORNIA,90606,Service Station or Gas Station,ARB,,,,-118.04631326664379,33.96458417402057
634,8578,SANTA FE MOTOR FUELS,13363 TELEGRAPH RD,WHITTIER,CALIFORNIA,90605,Service Station or Gas Station,ARB,,,,-118.04722992671961,33.94095390180126
635,9460,WHITTIER 76 INC,10506 WHITTIER BLVD,WHITTIER,CALIFORNIA,90606,Service Station or Gas Station,ARB,,,,-118.06699703068823,33.99183960081711
636,8713,MJM Vallejo Mini-Mart,10717 CARMENITA RD,WHITTIER,CALIFORNIA,90605,Service Station or Gas Station,ARB,,,,-118.04665801995152,33.936599200992546
637,8801,ARCO AM PM,8505 S PIONEER BLVD,WHITTIER,CALIFORNIA,90606,Service Station or Gas Station,ARB,,,,-118.08246611092216,33.966873480127205
638,7822,Woauna In,10121 WHITTIER BLVD,WHITTIER,CALIFORNIA,90606,Service Station or Gas Station,ARB,,,,-118.07105660457844,33.99476035150918
639,7824,CIRCLE K MOBIL STORE 2211211,8441 PIONEER BLVD,WHITTIER,CALIFORNIA,90606,Service Station or Gas Station,ARB,,,,-118.08194814908771,33.967962311811476
640,7984,EZ GAS,6000 ORANGETHORPE AVE,BUENA PARK,CALIFORNIA,90620,Service Station or Gas Station,ARB,,,,-118.02850204423375,33.858647472403106
641,723,7-ELEVEN INC #36983,8495 WESTERN AVE,BUENA PARK,CALIFORNIA,90620,Service Station or Gas Station,ARB,,,,-118.00237650766957,33.83940909875109
642,9302,SUPER SHELL,11347 WASHINGTON BLVD,WHITTIER,CALIFORNIA,90606,Service Station or Gas Station,ARB,,,,-118.0695940200478,33.971636540594034
643,7823,"AMERICAN ROYAL PETROLEUM, INC.",11025 WASHINGTON BLVD,WHITTIER,CALIFORNIA,90606,Service Station or Gas Station,ARB,,,,-118.07511679540363,33.9728910040168
644,717,ORANGETHORPE 76,6971 ORANGETHORPE AVE,BUENA PARK,CALIFORNIA,90620,Service Station or Gas Station,ARB,,,YES,-118.01187763284636,33.858946577922374
645,720,GHAJAR,7760 CRESENT AVE,BUENA PARK,CALIFORNIA,90620,Service Station or Gas Station,ARB,,,,-117.99759631062108,33.8393144163274
646,724,B&L FUEL MART INC,8510 KNOTT AVE,BUENA PARK,CALIFORNIA,90620,Service Station or Gas Station,ARB,,,,-118.01091516130546,33.8390579009016
647,722,LA PALMA CHEVRON,7990 VALLEY VIEW ST,BUENA PARK,CALIFORNIA,90620,Service Station or Gas Station,ARB,,,,-118.02837403473379,33.84657703090538
648,721,BUENA PARK AMPM,7990 KNOTT AVE,BUENA PARK,CALIFORNIA,90620,Service Station or Gas Station,ARB,,,,-118.01097655442429,33.84674648386332
649,712,Beach & Artesia Mobil,5989 BEACH BLVD,BUENA PARK,CALIFORNIA,90621,Service Station or Gas Station,ARB,,,,-117.99838180637514,33.873762427494256
650,714,KVD YAM,6392 BEACH BLVD,BUENA PARK,CALIFORNIA,90621,Service Station or Gas Station,ARB,,,,-117.99797948656393,33.867664802788575
651,725,BUENA PARK MOBIL,8991 ORANGETHORPE AVE,BUENA PARK,CALIFORNIA,90621,Service Station or Gas Station,ARB,,,,-117.97644325964858,33.85916704942001
652,716,BUENA PARK OIL,6971 BEACH BLVD,BUENA PARK,CALIFORNIA,90621,Service Station or Gas Station,ARB,,,YES,-117.99823655057624,33.85942342365227
653,12962,BEACH & LA MIRADA CARWASH,5231 BEACH BLVD,BUENA PARK,CALIFORNIA,90621,Service Station or Gas Station,ARB,,,,-117.9954492358934,33.88477644977351
654,726,CHEVRON STATION# 98873,5241 BEACH BLVD,BUENA PARK,CALIFORNIA,90621,Service Station or Gas Station,ARB,,,,-117.99567361584454,33.88445442503183
655,10651,USA #63182,7510 ORANGETHORPE AVE,BUENA PARK,CALIFORNIA,90621,Service Station or Gas Station,ARB,,,YES,-118.00225308740993,33.8589048583727
656,9374,GALAXY ARTESIA,7250 ARTESIA BLVD,BUENA PARK,CALIFORNIA,90621,Service Station or Gas Station,ARB,,,,-118.00646088396249,33.87334144854919
657,711,UNITED PACIFIC #38,5262 BEACH BLVD,BUENA PARK,CALIFORNIA,90621,Service Station or Gas Station,ARB,,,,-117.99513223476471,33.88468004334949
658,2859,UNITED PACIFIC #158,5502 ORANGETHORPE AVE,LA PALMA,CALIFORNIA,90623,Service Station or Gas Station,ARB,,,,-118.03745150368381,33.85861147793754
659,2857,RJM Vallero Mini-Mart,5472 ORANGETHORPE AVE,LA PALMA,CALIFORNIA,90623,Service Station or Gas Station,ARB,,,,-118.03795320937294,33.85861147793754
660,13099,MOBIL CRESCENT CAR WASH,8471 WALKER ST,LA PALMA,CALIFORNIA,90623,Service Station or Gas Station,ARB,,,,-118.03718287259137,33.83930294817278
661,1451,SHELL #135217,6001 ORANGE AVE,CYPRESS,CALIFORNIA,90630,Service Station or Gas Station,ARB,,,,-118.0281904678157,33.824478573027896
